# 
# Header Description:
# 
# Version: v2.0.0.1 Platform: 10 Manufacturer: Google Model: Pixel 3
# 
# Raw,ElapsedRealtimeMillis,TimeNanos,LeapSecond,TimeUncertaintyNanos,FullBiasNanos,BiasNanos,BiasUncertaintyNanos,DriftNanosPerSecond,DriftUncertaintyNanosPerSecond,HardwareClockDiscontinuityCount,Svid,TimeOffsetNanos,State,ReceivedSvTimeNanos,ReceivedSvTimeUncertaintyNanos,Cn0DbHz,PseudorangeRateMetersPerSecond,PseudorangeRateUncertaintyMetersPerSecond,AccumulatedDeltaRangeState,AccumulatedDeltaRangeMeters,AccumulatedDeltaRangeUncertaintyMeters,CarrierFrequencyHz,CarrierCycles,CarrierPhase,CarrierPhaseUncertainty,MultipathIndicator,SnrInDb,ConstellationType,AgcDb,CarrierFrequencyHz
# 
# Fix,Provider,Latitude,Longitude,Altitude,Speed,Accuracy,(UTC)TimeInMs
# 
# Nav,Svid,Type,Status,MessageId,Sub-messageId,Data(Bytes)
# 
Raw,523240068,1873712269000000,,,-1265091263270653809,0.22743606567382812,1004.0178894996643,-85.10982482619603,17.216729373744894,1806,14,0.0,207,6157473118412,27,24.4,-119.90291595458984,0.8709999918937683,16,0.0,0.0,1.59806246E9,,,,0,,3,0.0,1.59806246E9
Raw,523240068,1873712269000000,,,-1265091263270653809,0.22743606567382812,1004.0178894996643,-85.10982482619603,17.216729373744894,1806,1,0.0,15,513775461157496,24,25.0,-100.97089385986328,0.21090000867843628,16,0.0,0.0,1.57542003E9,,,,0,,1,0.0,1.57542003E9
Raw,523240068,1873712269000000,,,-1265091263270653809,0.22743606567382812,1004.0178894996643,-85.10982482619603,17.216729373744894,1806,7,0.0,15,513775462740383,14,30.1,505.7322692871094,0.02979999966919422,16,0.0,0.0,1.57542003E9,,,,0,,1,0.0,1.57542003E9
Raw,523240068,1873712269000000,,,-1265091263270653809,0.22743606567382812,1004.0178894996643,-85.10982482619603,17.216729373744894,1806,11,0.0,15,513775458540967,24,25.6,436.5932922363281,0.20640000700950623,16,0.0,0.0,1.57542003E9,,,,0,,1,0.0,1.57542003E9
Raw,523240068,1873712269000000,,,-1265091263270653809,0.22743606567382812,1004.0178894996643,-85.10982482619603,17.216729373744894,1806,17,0.0,15,513775470671654,11,33.1,-263.54754638671875,0.03400000184774399,16,0.0,0.0,1.57542003E9,,,,0,,1,0.0,1.57542003E9
Raw,523240068,1873712269000000,,,-1265091263270653809,0.22743606567382812,1004.0178894996643,-85.10982482619603,17.216729373744894,1806,30,0.0,15,513775469869695,6,39.6,264.673095703125,0.023800000548362732,16,0.0,0.0,1.57542003E9,,,,0,,1,0.0,1.57542003E9
Raw,523240068,1873712269000000,,,-1265091263270653809,0.22743606567382812,1004.0178894996643,-85.10982482619603,17.216729373744894,1806,11,0.0,7183,513775453710280,14,30.2,125.23226928710938,0.34700000286102295,16,0.0,0.0,1.57542003E9,,,,0,,6,0.0,1.57542003E9
Raw,523240068,1873712269000000,,,-1265091263270653809,0.22743606567382812,1004.0178894996643,-85.10982482619603,17.216729373744894,1806,25,0.0,7183,513775453605476,17,28.9,275.2693176269531,0.3970000147819519,16,0.0,0.0,1.57542003E9,,,,0,,6,0.0,1.57542003E9
Raw,523240068,1873712269000000,,,-1265091263270653809,0.22743606567382812,1004.0178894996643,-85.10982482619603,17.216729373744894,1806,36,0.0,7183,513775456631219,24,25.6,-360.27349853515625,0.5115000009536743,16,0.0,0.0,1.57542003E9,,,,0,,6,0.0,1.57542003E9
Fix,gps,37.428062,-122.174104,2.707794,0.000000,4.288000,1582929758000
Fix,gps,37.428060,-122.174102,2.581055,0.000000,4.288000,1582929759000
Raw,523241087,1873713165000000,,,-1265091263270164927,-0.7955293655395508,1002.2260248661041,-69.04303675163384,16.257390948287963,1807,14,0.0,207,6158368629758,24,25.9,-120.14761352539062,1.3725000619888306,16,0.0,0.0,1.59806246E9,,,,0,,3,0.0,1.59806246E9
Raw,523241088,1873713165000000,,,-1265091263270164927,-0.7955293655395508,1002.2260248661041,-69.04303675163384,16.257390948287963,1807,23,0.0,207,6158365592346,14,30.6,317.6910095214844,0.2709999978542328,16,0.0,0.0,1.60368755E9,,,,0,,3,0.0,1.60368755E9
Raw,523241088,1873713165000000,,,-1265091263270164927,-0.7955293655395508,1002.2260248661041,-69.04303675163384,16.257390948287963,1807,1,0.0,15,513776356668805,11,33.0,-100.8603744506836,0.06720000505447388,16,0.0,0.0,1.57542003E9,,,,0,,1,0.0,1.57542003E9
Raw,523241088,1873713165000000,,,-1265091263270164927,-0.7955293655395508,1002.2260248661041,-69.04303675163384,16.257390948287963,1807,7,0.0,15,513776358249961,21,26.5,505.9440002441406,0.2777000069618225,16,0.0,0.0,1.57542003E9,,,,0,,1,0.0,1.57542003E9
Raw,523241088,1873713165000000,,,-1265091263270164927,-0.7955293655395508,1002.2260248661041,-69.04303675163384,16.257390948287963,1807,11,0.0,15,513776354050803,21,26.2,436.4813537597656,0.271699994802475,16,0.0,0.0,1.57542003E9,,,,0,,1,0.0,1.57542003E9
Raw,523241089,1873713165000000,,,-1265091263270164927,-0.7955293655395508,1002.2260248661041,-69.04303675163384,16.257390948287963,1807,17,0.0,15,513776366183450,7,37.3,-263.5746765136719,0.0364999994635582,16,0.0,0.0,1.57542003E9,,,,0,,1,0.0,1.57542003E9
Raw,523241089,1873713165000000,,,-1265091263270164927,-0.7955293655395508,1002.2260248661041,-69.04303675163384,16.257390948287963,1807,30,0.0,15,513776365379950,7,37.7,264.6898498535156,0.0650000050663948,16,0.0,0.0,1.57542003E9,,,,0,,1,0.0,1.57542003E9
Raw,523241089,1873713165000000,,,-1265091263270164927,-0.7955293655395508,1002.2260248661041,-69.04303675163384,16.257390948287963,1807,11,0.0,7183,513776349220950,16,29.9,124.85650634765625,0.11190000176429749,16,0.0,0.0,1.57542003E9,,,,0,,6,0.0,1.57542003E9
Raw,523241089,1873713165000000,,,-1265091263270164927,-0.7955293655395508,1002.2260248661041,-69.04303675163384,16.257390948287963,1807,25,0.0,7183,513776349115628,24,25.2,275.123046875,1.1980000734329224,16,0.0,0.0,1.57542003E9,,,,0,,6,0.0,1.57542003E9
Raw,523242082,1873714379000000,,,-1265091263269719970,0.6975841522216797,1002.261065877974,-69.21837981620257,15.288218105484988,1808,14,0.0,207,6159582185471,21,26.3,-109.29763793945312,0.4837000072002411,16,0.0,0.0,1.59806246E9,,,,0,,3,0.0,1.59806246E9
Raw,523242082,1873714379000000,,,-1265091263269719970,0.6975841522216797,1002.261065877974,-69.21837981620257,15.288218105484988,1808,13,0.0,207,6159576398412,27,24.1,367.5225524902344,0.875499963760376,16,0.0,0.0,1.60087501E9,,,,0,,3,0.0,1.60087501E9
Raw,523242082,1873714379000000,,,-1265091263269719970,0.6975841522216797,1002.261065877974,-69.21837981620257,15.288218105484988,1808,23,0.0,207,6159579146286,12,32.4,328.2682800292969,0.2770000100135803,16,0.0,0.0,1.60368755E9,,,,0,,3,0.0,1.60368755E9
Raw,523242083,1873714379000000,,,-1265091263269719970,0.6975841522216797,1002.261065877974,-69.21837981620257,15.288218105484988,1808,1,0.0,15,513777570224371,7,37.5,-90.48890686035156,0.042500000447034836,16,0.0,0.0,1.57542003E9,,,,0,,1,0.0,1.57542003E9
Raw,523242083,1873714379000000,,,-1265091263269719970,0.6975841522216797,1002.261065877974,-69.21837981620257,15.288218105484988,1808,7,0.0,15,513777571803014,21,26.0,516.0416870117188,0.2671999931335449,16,0.0,0.0,1.57542003E9,,,,0,,1,0.0,1.57542003E9
Raw,523242083,1873714379000000,,,-1265091263269719970,0.6975841522216797,1002.261065877974,-69.21837981620257,15.288218105484988,1808,11,0.0,15,513777567604153,19,27.5,446.88836669921875,0.17419999837875366,16,0.0,0.0,1.57542003E9,,,,0,,1,0.0,1.57542003E9
Raw,523242083,1873714379000000,,,-1265091263269719970,0.6975841522216797,1002.261065877974,-69.21837981620257,15.288218105484988,1808,17,0.0,15,513777579739721,9,35.0,-253.1798095703125,0.06300000101327896,16,0.0,0.0,1.57542003E9,,,,0,,1,0.0,1.57542003E9
Raw,523242083,1873714379000000,,,-1265091263269719970,0.6975841522216797,1002.261065877974,-69.21837981620257,15.288218105484988,1808,28,0.0,15,513777579082609,21,26.8,149.31517028808594,0.27920001745224,16,0.0,0.0,1.57542003E9,,,,0,,1,0.0,1.57542003E9
Raw,523242084,1873714379000000,,,-1265091263269719970,0.6975841522216797,1002.261065877974,-69.21837981620257,15.288218105484988,1808,30,0.0,15,513777578934036,7,37.2,274.9071044921875,0.05450000241398811,16,0.0,0.0,1.57542003E9,,,,0,,1,0.0,1.57542003E9
Raw,523242084,1873714379000000,,,-1265091263269719970,0.6975841522216797,1002.261065877974,-69.21837981620257,15.288218105484988,1808,2,0.0,7183,513777569879180,21,26.3,-26.22246742248535,0.4790000021457672,16,0.0,0.0,1.57542003E9,,,,0,,6,0.0,1.57542003E9
Raw,523242084,1873714379000000,,,-1265091263269719970,0.6975841522216797,1002.261065877974,-69.21837981620257,15.288218105484988,1808,11,0.0,7183,513777562775606,14,30.7,135.46055603027344,0.3544999957084656,16,0.0,0.0,1.57542003E9,,,,0,,6,0.0,1.57542003E9
Raw,523242085,1873714379000000,,,-1265091263269719970,0.6975841522216797,1002.261065877974,-69.21837981620257,15.288218105484988,1808,25,0.0,7183,513777562669713,11,33.6,285.64031982421875,0.28450000286102295,16,0.0,0.0,1.57542003E9,,,,0,,6,0.0,1.57542003E9
Raw,523242085,1873714379000000,,,-1265091263269719970,0.6975841522216797,1002.261065877974,-69.21837981620257,15.288218105484988,1808,36,0.0,7183,513777565699988,19,27.9,-350.22601318359375,0.4390000104904175,16,0.0,0.0,1.57542003E9,,,,0,,6,0.0,1.57542003E9
Fix,gps,37.428058,-122.174102,2.482239,0.000000,5.360000,1582929760000
Raw,523243081,1873715370000000,,,-1265091263269168803,-0.9749860763549805,1002.2791102528572,-34.69912957545527,16.5237107237348,1809,14,0.0,207,6160572634328,27,24.4,-109.4068374633789,0.8694999814033508,16,0.0,0.0,1.59806246E9,,,,0,,3,0.0,1.59806246E9
Raw,523243082,1873715370000000,,,-1265091263269168803,-0.9749860763549805,1002.2791102528572,-34.69912957545527,16.5237107237348,1809,13,0.0,207,6160566846044,31,23.5,367.9720153808594,0.9204999804496765,16,0.0,0.0,1.60087501E9,,,,0,,3,0.0,1.60087501E9
Raw,523243082,1873715370000000,,,-1265091263269168803,-0.9749860763549805,1002.2791102528572,-34.69912957545527,16.5237107237348,1809,23,0.0,207,6160569593930,9,35.4,328.9181823730469,0.24800001084804535,16,0.0,0.0,1.60368755E9,,,,0,,3,0.0,1.60368755E9
Raw,523243082,1873715370000000,,,-1265091263269168803,-0.9749860763549805,1002.2791102528572,-34.69912957545527,16.5237107237348,1809,1,0.0,15,513778560673356,7,37.6,-89.95410919189453,0.057500001043081284,16,0.0,0.0,1.57542003E9,,,,0,,1,0.0,1.57542003E9
Raw,523243082,1873715370000000,,,-1265091263269168803,-0.9749860763549805,1002.2791102528572,-34.69912957545527,16.5237107237348,1809,7,0.0,15,513778562250057,27,24.7,516.4189453125,0.6345000267028809,16,0.0,0.0,1.57542003E9,,,,0,,1,0.0,1.57542003E9
Raw,523243082,1873715370000000,,,-1265091263269168803,-0.9749860763549805,1002.2791102528572,-34.69912957545527,16.5237107237348,1809,11,0.0,15,513778558051362,24,25.3,447.50250244140625,1.1875,16,0.0,0.0,1.57542003E9,,,,0,,1,0.0,1.57542003E9
Raw,523243082,1873715370000000,,,-1265091263269168803,-0.9749860763549805,1002.2791102528572,-34.69912957545527,16.5237107237348,1809,17,0.0,15,513778570189262,11,33.1,-252.61361694335938,0.05820000171661377,16,0.0,0.0,1.57542003E9,,,,0,,1,0.0,1.57542003E9
Raw,523243083,1873715370000000,,,-1265091263269168803,-0.9749860763549805,1002.2791102528572,-34.69912957545527,16.5237107237348,1809,28,0.0,15,513778569530750,17,28.1,149.73452758789062,0.11089999973773956,16,0.0,0.0,1.57542003E9,,,,0,,1,0.0,1.57542003E9
Raw,523243083,1873715370000000,,,-1265091263269168803,-0.9749860763549805,1002.2791102528572,-34.69912957545527,16.5237107237348,1809,30,0.0,15,513778569381801,6,38.8,275.54571533203125,0.03840000182390213,16,0.0,0.0,1.57542003E9,,,,0,,1,0.0,1.57542003E9
Raw,523243083,1873715370000000,,,-1265091263269168803,-0.9749860763549805,1002.2791102528572,-34.69912957545527,16.5237107237348,1809,2,0.0,7183,513778560327964,24,25.8,-26.28644371032715,1.190500020980835,16,0.0,0.0,1.57542003E9,,,,0,,6,0.0,1.57542003E9
Raw,523243083,1873715370000000,,,-1265091263269168803,-0.9749860763549805,1002.2791102528572,-34.69912957545527,16.5237107237348,1809,11,0.0,7183,513778553223830,14,30.7,135.8189239501953,0.0949999988079071,16,0.0,0.0,1.57542003E9,,,,0,,6,0.0,1.57542003E9
Raw,523243083,1873715370000000,,,-1265091263269168803,-0.9749860763549805,1002.2791102528572,-34.69912957545527,16.5237107237348,1809,25,0.0,7183,513778553117454,10,34.9,285.80010986328125,0.07010000199079514,16,0.0,0.0,1.57542003E9,,,,0,,6,0.0,1.57542003E9
Raw,523243084,1873715370000000,,,-1265091263269168803,-0.9749860763549805,1002.2791102528572,-34.69912957545527,16.5237107237348,1809,36,0.0,7183,513778556149797,17,28.6,-350.8451843261719,0.1273999959230423,16,0.0,0.0,1.57542003E9,,,,0,,6,0.0,1.57542003E9
Fix,gps,37.428057,-122.174101,2.483154,0.000000,5.360000,1582929761000
Raw,523244075,1873716383000000,,,-1265091263268774374,0.5282630920410156,1001.5020379796624,-33.255393209666806,10.267091150057766,1810,14,0.0,207,6161585240389,27,24.6,-109.66008758544922,0.8589999675750732,16,0.0,0.0,1.59806246E9,,,,0,,3,0.0,1.59806246E9
Raw,523244075,1873716383000000,,,-1265091263268774374,0.5282630920410156,1001.5020379796624,-33.255393209666806,10.267091150057766,1810,13,0.0,207,6161579450361,31,23.7,368.2435302734375,0.9399999976158142,16,0.0,0.0,1.60087501E9,,,,0,,3,0.0,1.60087501E9
Raw,523244075,1873716383000000,,,-1265091263268774374,0.5282630920410156,1001.5020379796624,-33.255393209666806,10.267091150057766,1810,23,0.0,207,6161582198388,9,35.5,329.32025146484375,0.26750001311302185,16,0.0,0.0,1.60368755E9,,,,0,,3,0.0,1.60368755E9
Raw,523244075,1873716383000000,,,-1265091263268774374,0.5282630920410156,1001.5020379796624,-33.255393209666806,10.267091150057766,1810,1,0.0,15,513779573279191,8,36.6,-89.4354476928711,0.05000000074505806,16,0.0,0.0,1.57542003E9,,,,0,,1,0.0,1.57542003E9
Raw,523244075,1873716383000000,,,-1265091263268774374,0.5282630920410156,1001.5020379796624,-33.255393209666806,10.267091150057766,1810,7,0.0,15,513779574853701,27,24.7,516.2001342773438,0.6225000023841858,16,0.0,0.0,1.57542003E9,,,,0,,1,0.0,1.57542003E9
Raw,523244075,1873716383000000,,,-1265091263268774374,0.5282630920410156,1001.5020379796624,-33.255393209666806,10.267091150057766,1810,11,0.0,15,513779570655502,24,25.4,447.9044189453125,1.1755000352859497,16,0.0,0.0,1.57542003E9,,,,0,,1,0.0,1.57542003E9
Raw,523244075,1873716383000000,,,-1265091263268774374,0.5282630920410156,1001.5020379796624,-33.255393209666806,10.267091150057766,1810,17,0.0,15,513779582795639,10,34.6,-252.21897888183594,0.07159999758005142,16,0.0,0.0,1.57542003E9,,,,0,,1,0.0,1.57542003E9
Raw,523244075,1873716383000000,,,-1265091263268774374,0.5282630920410156,1001.5020379796624,-33.255393209666806,10.267091150057766,1810,28,0.0,15,513779582135857,17,28.0,150.1301727294922,0.13040000200271606,16,0.0,0.0,1.57542003E9,,,,0,,1,0.0,1.57542003E9
Raw,523244075,1873716383000000,,,-1265091263268774374,0.5282630920410156,1001.5020379796624,-33.255393209666806,10.267091150057766,1810,30,0.0,15,513779581986429,6,38.1,275.8755187988281,0.05640000104904175,16,0.0,0.0,1.57542003E9,,,,0,,1,0.0,1.57542003E9
Raw,523244075,1873716383000000,,,-1265091263268774374,0.5282630920410156,1001.5020379796624,-33.255393209666806,10.267091150057766,1810,11,0.0,7183,513779565828933,16,29.8,136.32443237304688,0.10589999705553055,16,0.0,0.0,1.57542003E9,,,,0,,6,0.0,1.57542003E9
Raw,523244076,1873716383000000,,,-1265091263268774374,0.5282630920410156,1001.5020379796624,-33.255393209666806,10.267091150057766,1810,25,0.0,7183,513779565722049,11,33.3,286.5521240234375,0.0747000053524971,16,0.0,0.0,1.57542003E9,,,,0,,6,0.0,1.57542003E9
Raw,523244076,1873716383000000,,,-1265091263268774374,0.5282630920410156,1001.5020379796624,-33.255393209666806,10.267091150057766,1810,36,0.0,7183,513779568756494,21,26.6,-348.6084899902344,0.4715000092983246,16,0.0,0.0,1.57542003E9,,,,0,,6,0.0,1.57542003E9
Fix,gps,37.428057,-122.174102,2.513519,0.000000,5.360000,1582929762000
Raw,523245088,1873717374000000,,,-1265091263268439498,-0.1861114501953125,1001.9873734563589,-32.105722305267996,14.189419593839869,1811,14,0.0,207,6162575905722,24,25.2,-106.11260223388672,1.383000135421753,16,0.0,0.0,1.59806246E9,,,,0,,3,0.0,1.59806246E9
Raw,523245088,1873717374000000,,,-1265091263268439498,-0.1861114501953125,1001.9873734563589,-32.105722305267996,14.189419593839869,1811,23,0.0,207,6162572862269,12,32.5,331.93206787109375,0.26649999618530273,16,0.0,0.0,1.60368755E9,,,,0,,3,0.0,1.60368755E9
Raw,523245088,1873717374000000,,,-1265091263268439498,-0.1861114501953125,1001.9873734563589,-32.105722305267996,14.189419593839869,1811,1,0.0,15,513780563944586,8,36.6,-87.00761413574219,0.03500000014901161,16,0.0,0.0,1.57542003E9,,,,0,,1,0.0,1.57542003E9
Raw,523245088,1873717374000000,,,-1265091263268439498,-0.1861114501953125,1001.9873734563589,-32.105722305267996,14.189419593839869,1811,11,0.0,15,513780561319039,16,29.6,450.3573913574219,0.10589999705553055,16,0.0,0.0,1.57542003E9,,,,0,,1,0.0,1.57542003E9
Raw,523245089,1873717374000000,,,-1265091263268439498,-0.1861114501953125,1001.9873734563589,-32.105722305267996,14.189419593839869,1811,17,0.0,15,513780573461544,9,35.0,-249.64529418945312,0.05400000140070915,16,0.0,0.0,1.57542003E9,,,,0,,1,0.0,1.57542003E9
Raw,523245089,1873717374000000,,,-1265091263268439498,-0.1861114501953125,1001.9873734563589,-32.105722305267996,14.189419593839869,1811,28,0.0,15,513780572800373,21,26.9,152.5057830810547,0.2687000036239624,16,0.0,0.0,1.57542003E9,,,,0,,1,0.0,1.57542003E9
Raw,523245090,1873717374000000,,,-1265091263268439498,-0.1861114501953125,1001.9873734563589,-32.105722305267996,14.189419593839869,1811,30,0.0,15,513780572650568,6,38.3,278.3914794921875,0.042899999767541885,16,0.0,0.0,1.57542003E9,,,,0,,1,0.0,1.57542003E9
Raw,523245090,1873717374000000,,,-1265091263268439498,-0.1861114501953125,1001.9873734563589,-32.105722305267996,14.189419593839869,1811,2,0.0,7183,513780563598758,24,25.4,-23.111167907714844,0.5099999904632568,16,0.0,0.0,1.57542003E9,,,,0,,6,0.0,1.57542003E9
Raw,523245090,1873717374000000,,,-1265091263268439498,-0.1861114501953125,1001.9873734563589,-32.105722305267996,14.189419593839869,1811,11,0.0,7183,513780556493560,16,29.4,139.34254455566406,0.3815000057220459,16,0.0,0.0,1.57542003E9,,,,0,,6,0.0,1.57542003E9
Raw,523245090,1873717374000000,,,-1265091263268439498,-0.1861114501953125,1001.9873734563589,-32.105722305267996,14.189419593839869,1811,25,0.0,7183,513780556386187,10,34.3,286.86328125,0.06859999895095825,16,0.0,0.0,1.57542003E9,,,,0,,6,0.0,1.57542003E9
Raw,523245090,1873717374000000,,,-1265091263268439498,-0.1861114501953125,1001.9873734563589,-32.105722305267996,14.189419593839869,1811,36,0.0,7183,513780559422747,17,28.5,-347.9214782714844,0.125900000333786,16,0.0,0.0,1.57542003E9,,,,0,,6,0.0,1.57542003E9
Fix,gps,37.428058,-122.174109,0.956390,0.380000,6.432000,1582929763000
Raw,523246076,1873718489000000,,,-1265091263267651689,0.1560344696044922,1004.2280191555619,-24.16831364459729,17.128490012414346,1812,14,0.0,207,6163690118307,35,22.6,-105.27969360351562,0.9864999651908875,16,0.0,0.0,1.59806246E9,,,,0,,3,0.0,1.59806246E9
Raw,523246076,1873718489000000,,,-1265091263267651689,0.1560344696044922,1004.2280191555619,-24.16831364459729,17.128490012414346,1812,13,0.0,207,6163684324845,40,21.6,371.66119384765625,1.0674999952316284,16,0.0,0.0,1.60087501E9,,,,0,,3,0.0,1.60087501E9
Raw,523246076,1873718489000000,,,-1265091263267651689,0.1560344696044922,1004.2280191555619,-24.16831364459729,17.128490012414346,1812,23,0.0,207,6163687073275,11,33.9,333.0058898925781,0.22949999570846558,16,0.0,0.0,1.60368755E9,,,,0,,3,0.0,1.60368755E9
Raw,523246076,1873718489000000,,,-1265091263267651689,0.1560344696044922,1004.2280191555619,-24.16831364459729,17.128490012414346,1812,1,0.0,15,513781678157043,9,35.7,-85.90769958496094,0.04200000315904617,16,0.0,0.0,1.57542003E9,,,,0,,1,0.0,1.57542003E9
Raw,523246076,1873718489000000,,,-1265091263267651689,0.1560344696044922,1004.2280191555619,-24.16831364459729,17.128490012414346,1812,11,0.0,15,513781675529511,21,26.4,451.37811279296875,0.12020000070333481,16,0.0,0.0,1.57542003E9,,,,0,,1,0.0,1.57542003E9
Raw,523246076,1873718489000000,,,-1265091263267651689,0.1560344696044922,1004.2280191555619,-24.16831364459729,17.128490012414346,1812,17,0.0,15,513781687674629,11,33.8,-248.71173095703125,0.029500000178813934,16,0.0,0.0,1.57542003E9,,,,0,,1,0.0,1.57542003E9
Raw,523246076,1873718489000000,,,-1265091263267651689,0.1560344696044922,1004.2280191555619,-24.16831364459729,17.128490012414346,1812,28,0.0,15,513781687012097,24,25.1,153.3931884765625,0.1898999959230423,16,0.0,0.0,1.57542003E9,,,,0,,1,0.0,1.57542003E9
Raw,523246076,1873718489000000,,,-1265091263267651689,0.1560344696044922,1004.2280191555619,-24.16831364459729,17.128490012414346,1812,30,0.0,15,513781686861743,7,37.5,279.36090087890625,0.02160000056028366,16,0.0,0.0,1.57542003E9,,,,0,,1,0.0,1.57542003E9
Raw,523246076,1873718489000000,,,-1265091263267651689,0.1560344696044922,1004.2280191555619,-24.16831364459729,17.128490012414346,1812,2,0.0,7183,513781677811028,27,24.0,-22.80669593811035,0.5429999828338623,16,0.0,0.0,1.57542003E9,,,,0,,6,0.0,1.57542003E9
Raw,523246079,1873718489000000,,,-1265091263267651689,0.1560344696044922,1004.2280191555619,-24.16831364459729,17.128490012414346,1812,11,0.0,7183,513781670705206,19,27.7,140.0596923828125,0.0966000035405159,16,0.0,0.0,1.57542003E9,,,,0,,6,0.0,1.57542003E9
Raw,523246079,1873718489000000,,,-1265091263267651689,0.1560344696044922,1004.2280191555619,-24.16831364459729,17.128490012414346,1812,25,0.0,7183,513781670597261,11,33.1,288.90985107421875,0.052000001072883606,16,0.0,0.0,1.57542003E9,,,,0,,6,0.0,1.57542003E9
Raw,523246079,1873718489000000,,,-1265091263267651689,0.1560344696044922,1004.2280191555619,-24.16831364459729,17.128490012414346,1812,36,0.0,7183,513781673636213,16,29.0,-346.9687805175781,0.06120000034570694,16,0.0,0.0,1.57542003E9,,,,0,,6,0.0,1.57542003E9
Fix,gps,37.428056,-122.174116,1.462982,0.000000,6.432000,1582929764000
Fix,gps,37.428051,-122.174119,1.883789,0.000000,7.504000,1582929765000
Raw,523247084,1873719280000000,,,-1265091263267231390,-0.49112796783447266,618.6862592585385,-20.937711522814016,14.811884291943757,1813,14,0.0,207,6164480698318,27,24.4,-104.08845520019531,0.8814999461174011,16,0.0,0.0,1.59806246E9,,,,0,,3,0.0,1.59806246E9
Raw,523247084,1873719280000000,,,-1265091263267231390,-0.49112796783447266,618.6862592585385,-20.937711522814016,14.811884291943757,1813,13,0.0,207,6164474903399,31,23.9,372.5600891113281,0.9324999451637268,16,0.0,0.0,1.60087501E9,,,,0,,3,0.0,1.60087501E9
Raw,523247084,1873719280000000,,,-1265091263267231390,-0.49112796783447266,618.6862592585385,-20.937711522814016,14.811884291943757,1813,23,0.0,207,6164477651991,10,34.5,333.8604736328125,0.2425999939441681,16,0.0,0.0,1.60368755E9,,,,0,,3,0.0,1.60368755E9
Raw,523247084,1873719280000000,,,-1265091263267231390,-0.49112796783447266,618.6862592585385,-20.937711522814016,14.811884291943757,1813,1,0.0,15,513782468736929,8,36.4,-85.08686065673828,0.026000000536441803,16,0.0,0.0,1.57542003E9,,,,0,,1,0.0,1.57542003E9
Raw,523247085,1873719280000000,,,-1265091263267231390,-0.49112796783447266,618.6862592585385,-20.937711522814016,14.811884291943757,1813,11,0.0,15,513782466107998,21,26.9,452.15533447265625,0.10669999569654465,16,0.0,0.0,1.57542003E9,,,,0,,1,0.0,1.57542003E9
Raw,523247085,1873719280000000,,,-1265091263267231390,-0.49112796783447266,618.6862592585385,-20.937711522814016,14.811884291943757,1813,17,0.0,15,513782478254931,10,34.7,-247.86203002929688,0.04410000145435333,16,0.0,0.0,1.57542003E9,,,,0,,1,0.0,1.57542003E9
Raw,523247085,1873719280000000,,,-1265091263267231390,-0.49112796783447266,618.6862592585385,-20.937711522814016,14.811884291943757,1813,28,0.0,15,513782477591239,24,25.1,154.23947143554688,0.20489999651908875,16,0.0,0.0,1.57542003E9,,,,0,,1,0.0,1.57542003E9
Raw,523247085,1873719280000000,,,-1265091263267231390,-0.49112796783447266,618.6862592585385,-20.937711522814016,14.811884291943757,1813,30,0.0,15,513782477440642,6,38.6,280.2098083496094,0.03670000284910202,16,0.0,0.0,1.57542003E9,,,,0,,1,0.0,1.57542003E9
Raw,523247085,1873719280000000,,,-1265091263267231390,-0.49112796783447266,618.6862592585385,-20.937711522814016,14.811884291943757,1813,2,0.0,7183,513782468390684,27,24.2,-21.25580406188965,0.5475000143051147,16,0.0,0.0,1.57542003E9,,,,0,,6,0.0,1.57542003E9
Raw,523247085,1873719280000000,,,-1265091263267231390,-0.49112796783447266,618.6862592585385,-20.937711522814016,14.811884291943757,1813,11,0.0,7183,513782461284465,16,29.6,141.18362426757812,0.06120000034570694,16,0.0,0.0,1.57542003E9,,,,0,,6,0.0,1.57542003E9
Raw,523247086,1873719280000000,,,-1265091263267231390,-0.49112796783447266,618.6862592585385,-20.937711522814016,14.811884291943757,1813,25,0.0,7183,513782461176128,12,32.8,289.90435791015625,0.05290000140666962,16,0.0,0.0,1.57542003E9,,,,0,,6,0.0,1.57542003E9
Raw,523247086,1873719280000000,,,-1265091263267231390,-0.49112796783447266,618.6862592585385,-20.937711522814016,14.811884291943757,1813,36,0.0,7183,513782464216755,21,26.3,-345.4734191894531,0.13369999825954437,16,0.0,0.0,1.57542003E9,,,,0,,6,0.0,1.57542003E9
Raw,523248089,1873720274000000,,,-1265091263266740580,0.5737113952636719,1003.2814461737871,-17.910586247585062,14.314262456122158,1814,14,0.0,207,6165474207611,27,24.2,-105.0733413696289,0.872499942779541,16,0.0,0.0,1.59806246E9,,,,0,,3,0.0,1.59806246E9
Raw,523248089,1873720274000000,,,-1265091263266740580,0.5737113952636719,1003.2814461737871,-17.910586247585062,14.314262456122158,1814,13,0.0,207,6165468411230,31,23.9,372.2791748046875,0.9234999418258667,16,0.0,0.0,1.60087501E9,,,,0,,3,0.0,1.60087501E9
Raw,523248089,1873720274000000,,,-1265091263266740580,0.5737113952636719,1003.2814461737871,-17.910586247585062,14.314262456122158,1814,23,0.0,207,6165471159978,10,34.3,333.5551452636719,0.23360000550746918,16,0.0,0.0,1.60368755E9,,,,0,,3,0.0,1.60368755E9
Raw,523248089,1873720274000000,,,-1265091263266740580,0.5737113952636719,1003.2814461737871,-17.910586247585062,14.314262456122158,1814,1,0.0,15,513783462246280,8,36.5,-85.44844818115234,0.04700000211596489,16,0.0,0.0,1.57542003E9,,,,0,,1,0.0,1.57542003E9
Raw,523248090,1873720274000000,,,-1265091263266740580,0.5737113952636719,1003.2814461737871,-17.910586247585062,14.314262456122158,1814,11,0.0,15,513783459615539,17,28.6,451.7493591308594,0.06930000334978104,16,0.0,0.0,1.57542003E9,,,,0,,1,0.0,1.57542003E9
Raw,523248090,1873720274000000,,,-1265091263266740580,0.5737113952636719,1003.2814461737871,-17.910586247585062,14.314262456122158,1814,17,0.0,15,513783471764831,9,35.1,-248.17376708984375,0.03150000050663948,16,0.0,0.0,1.57542003E9,,,,0,,1,0.0,1.57542003E9
Raw,523248090,1873720274000000,,,-1265091263266740580,0.5737113952636719,1003.2814461737871,-17.910586247585062,14.314262456122158,1814,28,0.0,15,513783471099850,27,24.3,154.05223083496094,0.6679999828338623,16,0.0,0.0,1.57542003E9,,,,0,,1,0.0,1.57542003E9
Raw,523248090,1873720274000000,,,-1265091263266740580,0.5737113952636719,1003.2814461737871,-17.910586247585062,14.314262456122158,1814,30,0.0,15,513783470948779,7,37.8,279.8146057128906,0.02759999968111515,16,0.0,0.0,1.57542003E9,,,,0,,1,0.0,1.57542003E9
Raw,523248090,1873720274000000,,,-1265091263266740580,0.5737113952636719,1003.2814461737871,-17.910586247585062,14.314262456122158,1814,2,0.0,7183,513783461899828,27,24.7,-21.588817596435547,0.5429999828338623,16,0.0,0.0,1.57542003E9,,,,0,,6,0.0,1.57542003E9
Raw,523248091,1873720274000000,,,-1265091263266740580,0.5737113952636719,1003.2814461737871,-17.910586247585062,14.314262456122158,1814,11,0.0,7183,513783454793078,17,28.7,141.1471405029297,0.0737999975681305,16,0.0,0.0,1.57542003E9,,,,0,,6,0.0,1.57542003E9
Raw,523248091,1873720274000000,,,-1265091263266740580,0.5737113952636719,1003.2814461737871,-17.910586247585062,14.314262456122158,1814,25,0.0,7183,513783454684250,11,33.5,290.5426025390625,0.052000001072883606,16,0.0,0.0,1.57542003E9,,,,0,,6,0.0,1.57542003E9
Raw,523248091,1873720274000000,,,-1265091263266740580,0.5737113952636719,1003.2814461737871,-17.910586247585062,14.314262456122158,1814,36,0.0,7183,513783457726951,24,25.6,-345.91015625,0.21090000867843628,16,0.0,0.0,1.57542003E9,,,,0,,6,0.0,1.57542003E9
Fix,gps,37.428044,-122.174123,1.644531,0.000000,6.432000,1582929766000
Raw,523249095,1873721284000000,,,-1265091263266594392,0.08777809143066406,1003.7048486992717,-19.638921076211723,15.487244572007896,1815,14,0.0,207,6166484061855,24,25.3,-102.9441909790039,0.3853999972343445,16,0.0,0.0,1.59806246E9,,,,0,,3,0.0,1.59806246E9
Raw,523249095,1873721284000000,,,-1265091263266594392,0.08777809143066406,1003.7048486992717,-19.638921076211723,15.487244572007896,1815,13,0.0,207,6166478264081,27,24.8,374.22674560546875,0.8784999847412109,16,0.0,0.0,1.60087501E9,,,,0,,3,0.0,1.60087501E9
Raw,523249095,1873721284000000,,,-1265091263266594392,0.08777809143066406,1003.7048486992717,-19.638921076211723,15.487244572007896,1815,23,0.0,207,6166481012796,10,34.0,335.345947265625,0.24860000610351562,16,0.0,0.0,1.60368755E9,,,,0,,3,0.0,1.60368755E9
Raw,523249095,1873721284000000,,,-1265091263266594392,0.08777809143066406,1003.7048486992717,-19.638921076211723,15.487244572007896,1815,1,0.0,15,513784472100461,7,37.1,-83.6557388305664,0.03060000017285347,16,0.0,0.0,1.57542003E9,,,,0,,1,0.0,1.57542003E9
Raw,523249096,1873721284000000,,,-1265091263266594392,0.08777809143066406,1003.7048486992717,-19.638921076211723,15.487244572007896,1815,11,0.0,15,513784469467848,21,26.8,453.4922180175781,0.1111999973654747,16,0.0,0.0,1.57542003E9,,,,0,,1,0.0,1.57542003E9
Raw,523249096,1873721284000000,,,-1265091263266594392,0.08777809143066406,1003.7048486992717,-19.638921076211723,15.487244572007896,1815,17,0.0,15,513784481619542,9,35.9,-246.4327850341797,0.04650000110268593,16,0.0,0.0,1.57542003E9,,,,0,,1,0.0,1.57542003E9
Raw,523249096,1873721284000000,,,-1265091263266594392,0.08777809143066406,1003.7048486992717,-19.638921076211723,15.487244572007896,1815,28,0.0,15,513784480953181,27,24.5,155.50799560546875,0.6315000057220459,16,0.0,0.0,1.57542003E9,,,,0,,1,0.0,1.57542003E9
Raw,523249096,1873721284000000,,,-1265091263266594392,0.08777809143066406,1003.7048486992717,-19.638921076211723,15.487244572007896,1815,30,0.0,15,513784480801724,6,38.1,281.5605163574219,0.041200000792741776,16,0.0,0.0,1.57542003E9,,,,0,,1,0.0,1.57542003E9
Raw,523249097,1873721284000000,,,-1265091263266594392,0.08777809143066406,1003.7048486992717,-19.638921076211723,15.487244572007896,1815,2,0.0,7183,513784471753826,27,24.5,-19.84762954711914,0.5400000214576721,16,0.0,0.0,1.57542003E9,,,,0,,6,0.0,1.57542003E9
Raw,523249097,1873721284000000,,,-1265091263266594392,0.08777809143066406,1003.7048486992717,-19.638921076211723,15.487244572007896,1815,11,0.0,7183,513784464646501,17,28.4,140.394287109375,0.07079999893903732,16,0.0,0.0,1.57542003E9,,,,0,,6,0.0,1.57542003E9
Raw,523249097,1873721284000000,,,-1265091263266594392,0.08777809143066406,1003.7048486992717,-19.638921076211723,15.487244572007896,1815,25,0.0,7183,513784464537154,11,33.2,289.5467224121094,0.049000002443790436,16,0.0,0.0,1.57542003E9,,,,0,,6,0.0,1.57542003E9
Raw,523249097,1873721284000000,,,-1265091263266594392,0.08777809143066406,1003.7048486992717,-19.638921076211723,15.487244572007896,1815,36,0.0,7183,513784467582046,24,25.6,-344.3792724609375,0.2079000025987625,16,0.0,0.0,1.57542003E9,,,,0,,6,0.0,1.57542003E9
Fix,gps,37.428048,-122.174131,2.673096,0.380000,7.504000,1582929767000
Raw,523250092,1873722278000000,,,-1265091263266416257,-0.02381134033203125,1003.5964660346508,-14.65333751512762,15.328836173698809,1816,14,0.0,207,6167477884091,31,23.3,-103.98526763916016,0.9369999766349792,16,0.0,0.0,1.59806246E9,,,,0,,3,0.0,1.59806246E9
Raw,523250092,1873722278000000,,,-1265091263266416257,-0.02381134033203125,1003.5964660346508,-14.65333751512762,15.328836173698809,1816,13,0.0,207,6167472084579,27,24.8,373.168701171875,0.8694999814033508,16,0.0,0.0,1.60087501E9,,,,0,,3,0.0,1.60087501E9
Raw,523250092,1873722278000000,,,-1265091263266416257,-0.02381134033203125,1003.5964660346508,-14.65333751512762,15.328836173698809,1816,23,0.0,207,6167474833436,11,33.9,334.5966491699219,0.24000000953674316,16,0.0,0.0,1.60368755E9,,,,0,,3,0.0,1.60368755E9
Raw,523250092,1873722278000000,,,-1265091263266416257,-0.02381134033203125,1003.5964660346508,-14.65333751512762,15.328836173698809,1816,1,0.0,15,513785465922500,8,36.8,-84.527099609375,0.0215000007301569,16,0.0,0.0,1.57542003E9,,,,0,,1,0.0,1.57542003E9
Raw,523250093,1873722278000000,,,-1265091263266416257,-0.02381134033203125,1003.5964660346508,-14.65333751512762,15.328836173698809,1816,11,0.0,15,513785463288146,19,27.6,452.6883239746094,0.09809999912977219,16,0.0,0.0,1.57542003E9,,,,0,,1,0.0,1.57542003E9
Raw,523250093,1873722278000000,,,-1265091263266416257,-0.02381134033203125,1003.5964660346508,-14.65333751512762,15.328836173698809,1816,17,0.0,15,513785475442127,9,35.9,-247.22396850585938,0.03750000149011612,16,0.0,0.0,1.57542003E9,,,,0,,1,0.0,1.57542003E9
Raw,523250093,1873722278000000,,,-1265091263266416257,-0.02381134033203125,1003.5964660346508,-14.65333751512762,15.328836173698809,1816,28,0.0,15,513785474774533,31,23.2,154.7373046875,0.7324999570846558,16,0.0,0.0,1.57542003E9,,,,0,,1,0.0,1.57542003E9
Raw,523250094,1873722278000000,,,-1265091263266416257,-0.02381134033203125,1003.5964660346508,-14.65333751512762,15.328836173698809,1816,30,0.0,15,513785474622561,6,38.7,280.6739807128906,0.03220000118017197,16,0.0,0.0,1.57542003E9,,,,0,,1,0.0,1.57542003E9
Raw,523250094,1873722278000000,,,-1265091263266416257,-0.02381134033203125,1003.5964660346508,-14.65333751512762,15.328836173698809,1816,2,0.0,7183,513785465575617,24,25.7,-19.97596549987793,0.21090000867843628,16,0.0,0.0,1.57542003E9,,,,0,,6,0.0,1.57542003E9
Raw,523250094,1873722278000000,,,-1265091263266416257,-0.02381134033203125,1003.5964660346508,-14.65333751512762,15.328836173698809,1816,11,0.0,7183,513785458467801,19,27.7,142.06602478027344,0.0966000035405159,16,0.0,0.0,1.57542003E9,,,,0,,6,0.0,1.57542003E9
Raw,523250095,1873722278000000,,,-1265091263266416257,-0.02381134033203125,1003.5964660346508,-14.65333751512762,15.328836173698809,1816,25,0.0,7183,513785458357957,11,33.4,291.2723693847656,0.052000001072883606,16,0.0,0.0,1.57542003E9,,,,0,,6,0.0,1.57542003E9
Raw,523250095,1873722278000000,,,-1265091263266416257,-0.02381134033203125,1003.5964660346508,-14.65333751512762,15.328836173698809,1816,36,0.0,7183,513785461404961,27,24.7,-344.3459167480469,0.5489999651908875,16,0.0,0.0,1.57542003E9,,,,0,,6,0.0,1.57542003E9
Fix,gps,37.428054,-122.174141,3.426239,0.000000,6.432000,1582929768000
Fix,gps,37.428055,-122.174145,4.047943,0.000000,6.432000,1582929769000
Raw,523251089,1873723291000000,,,-1265091263265746092,0.008337020874023438,906.5051563084126,-17.81229615308135,15.875132251736776,1817,14,0.0,207,6168490214350,24,25.0,-104.17472076416016,0.3944000005722046,16,0.0,0.0,1.59806246E9,,,,0,,3,0.0,1.59806246E9
Raw,523251089,1873723291000000,,,-1265091263265746092,0.008337020874023438,906.5051563084126,-17.81229615308135,15.875132251736776,1817,13,0.0,207,6168484413062,31,23.9,373.5993957519531,0.9474999904632568,16,0.0,0.0,1.60087501E9,,,,0,,3,0.0,1.60087501E9
Raw,523251089,1873723291000000,,,-1265091263265746092,0.008337020874023438,906.5051563084126,-17.81229615308135,15.875132251736776,1817,23,0.0,207,6168487162222,10,34.3,334.42840576171875,0.22759999334812164,16,0.0,0.0,1.60368755E9,,,,0,,3,0.0,1.60368755E9
Raw,523251089,1873723291000000,,,-1265091263265746092,0.008337020874023438,906.5051563084126,-17.81229615308135,15.875132251736776,1817,1,0.0,15,513786478252723,7,37.1,-84.66998291015625,0.03959999978542328,16,0.0,0.0,1.57542003E9,,,,0,,1,0.0,1.57542003E9
Raw,523251089,1873723291000000,,,-1265091263265746092,0.008337020874023438,906.5051563084126,-17.81229615308135,15.875132251736776,1817,11,0.0,15,513786475616576,19,27.8,452.4543151855469,0.0861000046133995,16,0.0,0.0,1.57542003E9,,,,0,,1,0.0,1.57542003E9
Raw,523251090,1873723291000000,,,-1265091263265746092,0.008337020874023438,906.5051563084126,-17.81229615308135,15.875132251736776,1817,17,0.0,15,513786487772892,9,35.2,-247.46810913085938,0.02550000138580799,16,0.0,0.0,1.57542003E9,,,,0,,1,0.0,1.57542003E9
Raw,523251090,1873723291000000,,,-1265091263265746092,0.008337020874023438,906.5051563084126,-17.81229615308135,15.875132251736776,1817,28,0.0,15,513786487103969,31,23.1,154.48992919921875,0.722000002861023,16,0.0,0.0,1.57542003E9,,,,0,,1,0.0,1.57542003E9
Raw,523251090,1873723291000000,,,-1265091263265746092,0.008337020874023438,906.5051563084126,-17.81229615308135,15.875132251736776,1817,30,0.0,15,513786486951554,6,38.5,280.4640197753906,0.020200001075863838,16,0.0,0.0,1.57542003E9,,,,0,,1,0.0,1.57542003E9
Raw,523251090,1873723291000000,,,-1265091263265746092,0.008337020874023438,906.5051563084126,-17.81229615308135,15.875132251736776,1817,2,0.0,7183,513786477905643,24,25.0,-20.59899139404297,0.21090000867843628,16,0.0,0.0,1.57542003E9,,,,0,,6,0.0,1.57542003E9
Raw,523251090,1873723291000000,,,-1265091263265746092,0.008337020874023438,906.5051563084126,-17.81229615308135,15.875132251736776,1817,11,0.0,7183,513786470797264,17,28.5,141.8047637939453,0.0737999975681305,16,0.0,0.0,1.57542003E9,,,,0,,6,0.0,1.57542003E9
Raw,523251091,1873723291000000,,,-1265091263265746092,0.008337020874023438,906.5051563084126,-17.81229615308135,15.875132251736776,1817,25,0.0,7183,513786470686923,12,32.6,290.59423828125,0.0544000007212162,16,0.0,0.0,1.57542003E9,,,,0,,6,0.0,1.57542003E9
Raw,523251091,1873723291000000,,,-1265091263265746092,0.008337020874023438,906.5051563084126,-17.81229615308135,15.875132251736776,1817,36,0.0,7183,513786473736027,21,26.2,-343.8235778808594,0.12919999659061432,16,0.0,0.0,1.57542003E9,,,,0,,6,0.0,1.57542003E9
Fix,gps,37.428052,-122.174145,4.069885,0.000000,6.432000,1582929770000
Raw,523252082,1873724280000000,,,-1265091263265296272,-0.8440761566162109,861.8514984846115,-19.08669062794602,14.413853626703675,1818,14,0.0,207,6169478764771,24,25.0,-106.25479888916016,0.40639999508857727,16,0.0,0.0,1.59806246E9,,,,0,,3,0.0,1.59806246E9
Raw,523252082,1873724280000000,,,-1265091263265296272,-0.8440761566162109,861.8514984846115,-19.08669062794602,14.413853626703675,1818,13,0.0,207,6169472962119,35,22.9,370.4907531738281,0.9894999861717224,16,0.0,0.0,1.60087501E9,,,,0,,3,0.0,1.60087501E9
Raw,523252082,1873724280000000,,,-1265091263265296272,-0.8440761566162109,861.8514984846115,-19.08669062794602,14.413853626703675,1818,23,0.0,207,6169475711259,10,34.6,332.1883850097656,0.23960000276565552,16,0.0,0.0,1.60368755E9,,,,0,,3,0.0,1.60368755E9
Raw,523252082,1873724280000000,,,-1265091263265296272,-0.8440761566162109,861.8514984846115,-19.08669062794602,14.413853626703675,1818,1,0.0,15,513787466803172,7,37.1,-87.01075744628906,0.02160000056028366,16,0.0,0.0,1.57542003E9,,,,0,,1,0.0,1.57542003E9
Raw,523252082,1873724280000000,,,-1265091263265296272,-0.8440761566162109,861.8514984846115,-19.08669062794602,14.413853626703675,1818,7,0.0,15,513787468361784,40,21.9,518.17919921875,0.7834999561309814,16,0.0,0.0,1.57542003E9,,,,0,,1,0.0,1.57542003E9
Raw,523252083,1873724280000000,,,-1265091263265296272,-0.8440761566162109,861.8514984846115,-19.08669062794602,14.413853626703675,1818,11,0.0,15,513787464165210,16,29.0,450.0738830566406,0.0357000008225441,16,0.0,0.0,1.57542003E9,,,,0,,1,0.0,1.57542003E9
Raw,523252083,1873724280000000,,,-1265091263265296272,-0.8440761566162109,861.8514984846115,-19.08669062794602,14.413853626703675,1818,17,0.0,15,513787476323875,9,35.6,-249.6962432861328,0.039000000804662704,16,0.0,0.0,1.57542003E9,,,,0,,1,0.0,1.57542003E9
Raw,523252083,1873724280000000,,,-1265091263265296272,-0.8440761566162109,861.8514984846115,-19.08669062794602,14.413853626703675,1818,28,0.0,15,513787475653584,31,23.0,152.42523193359375,0.7339999675750732,16,0.0,0.0,1.57542003E9,,,,0,,1,0.0,1.57542003E9
Raw,523252083,1873724280000000,,,-1265091263265296272,-0.8440761566162109,861.8514984846115,-19.08669062794602,14.413853626703675,1818,30,0.0,15,513787475500793,6,38.9,278.17572021484375,0.03370000049471855,16,0.0,0.0,1.57542003E9,,,,0,,1,0.0,1.57542003E9
Raw,523252083,1873724280000000,,,-1265091263265296272,-0.8440761566162109,861.8514984846115,-19.08669062794602,14.413853626703675,1818,2,0.0,7183,513787466455845,27,24.7,-24.01506233215332,0.5444999933242798,16,0.0,0.0,1.57542003E9,,,,0,,6,0.0,1.57542003E9
Raw,523252083,1873724280000000,,,-1265091263265296272,-0.8440761566162109,861.8514984846115,-19.08669062794602,14.413853626703675,1818,11,0.0,7183,513787459346980,19,27.9,141.1675262451172,0.09210000187158585,16,0.0,0.0,1.57542003E9,,,,0,,6,0.0,1.57542003E9
Raw,523252084,1873724280000000,,,-1265091263265296272,-0.8440761566162109,861.8514984846115,-19.08669062794602,14.413853626703675,1818,25,0.0,7183,513787459236120,12,32.5,288.01898193359375,0.30000001192092896,16,0.0,0.0,1.57542003E9,,,,0,,6,0.0,1.57542003E9
Raw,523252084,1873724280000000,,,-1265091263265296272,-0.8440761566162109,861.8514984846115,-19.08669062794602,14.413853626703675,1818,36,0.0,7183,513787462287341,21,26.2,-346.8577880859375,0.47450000047683716,16,0.0,0.0,1.57542003E9,,,,0,,6,0.0,1.57542003E9
Fix,gps,37.428047,-122.174146,3.740875,0.000000,6.432000,1582929771000
Raw,523253078,1873725173000000,,,-1265091263264585414,0.3652229309082031,1001.918688416481,-26.99298321122052,13.893730173189281,1819,14,0.0,207,6170371054227,27,24.2,-111.72366333007812,0.8679999709129333,16,0.0,0.0,1.59806246E9,,,,0,,3,0.0,1.59806246E9
Raw,523253078,1873725173000000,,,-1265091263264585414,0.3652229309082031,1001.918688416481,-26.99298321122052,13.893730173189281,1819,13,0.0,207,6170365250065,21,26.3,365.3308410644531,0.45820000767707825,16,0.0,0.0,1.60087501E9,,,,0,,3,0.0,1.60087501E9
Raw,523253078,1873725173000000,,,-1265091263264585414,0.3652229309082031,1001.918688416481,-26.99298321122052,13.893730173189281,1819,23,0.0,207,6170367999349,10,34.9,327.1899108886719,0.249099999666214,16,0.0,0.0,1.60368755E9,,,,0,,3,0.0,1.60368755E9
Raw,523253079,1873725173000000,,,-1265091263264585414,0.3652229309082031,1001.918688416481,-26.99298321122052,13.893730173189281,1819,1,0.0,15,513788359092511,8,36.7,-91.862548828125,0.05900000035762787,16,0.0,0.0,1.57542003E9,,,,0,,1,0.0,1.57542003E9
Raw,523253079,1873725173000000,,,-1265091263264585414,0.3652229309082031,1001.918688416481,-26.99298321122052,13.893730173189281,1819,11,0.0,15,513788356452961,16,29.4,445.16290283203125,0.09839999675750732,16,0.0,0.0,1.57542003E9,,,,0,,1,0.0,1.57542003E9
Raw,523253079,1873725173000000,,,-1265091263264585414,0.3652229309082031,1001.918688416481,-26.99298321122052,13.893730173189281,1819,17,0.0,15,513788368613713,9,35.4,-254.80661010742188,0.04650000110268593,16,0.0,0.0,1.57542003E9,,,,0,,1,0.0,1.57542003E9
Raw,523253079,1873725173000000,,,-1265091263264585414,0.3652229309082031,1001.918688416481,-26.99298321122052,13.893730173189281,1819,28,0.0,15,513788367942282,27,24.1,148.15313720703125,0.6620000004768372,16,0.0,0.0,1.57542003E9,,,,0,,1,0.0,1.57542003E9
Raw,523253079,1873725173000000,,,-1265091263264585414,0.3652229309082031,1001.918688416481,-26.99298321122052,13.893730173189281,1819,30,0.0,15,513788367789040,6,39.8,273.0952453613281,0.03240000084042549,16,0.0,0.0,1.57542003E9,,,,0,,1,0.0,1.57542003E9
Raw,523253080,1873725173000000,,,-1265091263264585414,0.3652229309082031,1001.918688416481,-26.99298321122052,13.893730173189281,1819,2,0.0,7183,513788358745032,27,24.9,-29.91416358947754,0.5444999933242798,16,0.0,0.0,1.57542003E9,,,,0,,6,0.0,1.57542003E9
Raw,523253080,1873725173000000,,,-1265091263264585414,0.3652229309082031,1001.918688416481,-26.99298321122052,13.893730173189281,1819,11,0.0,7183,513788351635627,21,26.7,133.35780334472656,0.4699999988079071,16,0.0,0.0,1.57542003E9,,,,0,,6,0.0,1.57542003E9
Raw,523253080,1873725173000000,,,-1265091263264585414,0.3652229309082031,1001.918688416481,-26.99298321122052,13.893730173189281,1819,25,0.0,7183,513788351524358,12,32.9,282.6527099609375,0.30000001192092896,16,0.0,0.0,1.57542003E9,,,,0,,6,0.0,1.57542003E9
Raw,523253080,1873725173000000,,,-1265091263264585414,0.3652229309082031,1001.918688416481,-26.99298321122052,13.893730173189281,1819,36,0.0,7183,513788354577460,19,27.3,-352.2811584472656,0.4345000088214874,16,0.0,0.0,1.57542003E9,,,,0,,6,0.0,1.57542003E9
Fix,gps,37.428043,-122.174148,3.558899,0.000000,6.432000,1582929772000
Raw,523254081,1873726481000000,,,-1265091263263592731,0.9844837188720703,1004.8457188531756,-43.843445354045336,20.216603626429794,1820,14,0.0,207,6171678062117,27,24.4,-111.64862823486328,0.8784999847412109,16,0.0,0.0,1.59806246E9,,,,0,,3,0.0,1.59806246E9
Raw,523254081,1873726481000000,,,-1265091263263592731,0.9844837188720703,1004.8457188531756,-43.843445354045336,20.216603626429794,1820,13,0.0,207,6171672255962,24,25.0,365.372314453125,0.39739999175071716,16,0.0,0.0,1.60087501E9,,,,0,,3,0.0,1.60087501E9
Raw,523254081,1873726481000000,,,-1265091263263592731,0.9844837188720703,1004.8457188531756,-43.843445354045336,20.216603626429794,1820,23,0.0,207,6171675005320,10,34.1,327.2865905761719,0.23960000276565552,16,0.0,0.0,1.60368755E9,,,,0,,3,0.0,1.60368755E9
Raw,523254081,1873726481000000,,,-1265091263263592731,0.9844837188720703,1004.8457188531756,-43.843445354045336,20.216603626429794,1820,1,0.0,15,513789666100293,8,36.3,-91.96573638916016,0.023000000044703484,16,0.0,0.0,1.57542003E9,,,,0,,1,0.0,1.57542003E9
Raw,523254082,1873726481000000,,,-1265091263263592731,0.9844837188720703,1004.8457188531756,-43.843445354045336,20.216603626429794,1820,7,0.0,15,513789667654476,40,21.4,512.9461059570312,0.8420000076293945,16,0.0,0.0,1.57542003E9,,,,0,,1,0.0,1.57542003E9
Raw,523254082,1873726481000000,,,-1265091263263592731,0.9844837188720703,1004.8457188531756,-43.843445354045336,20.216603626429794,1820,11,0.0,15,513789663458414,17,28.4,445.0390930175781,0.04529999941587448,16,0.0,0.0,1.57542003E9,,,,0,,1,0.0,1.57542003E9
Raw,523254082,1873726481000000,,,-1265091263263592731,0.9844837188720703,1004.8457188531756,-43.843445354045336,20.216603626429794,1820,17,0.0,15,513789675622201,11,33.7,-254.73736572265625,0.04150000214576721,16,0.0,0.0,1.57542003E9,,,,0,,1,0.0,1.57542003E9
Raw,523254082,1873726481000000,,,-1265091263263592731,0.9844837188720703,1004.8457188531756,-43.843445354045336,20.216603626429794,1820,28,0.0,15,513789674949012,31,23.3,145.9171905517578,0.7324999570846558,16,0.0,0.0,1.57542003E9,,,,0,,1,0.0,1.57542003E9
Raw,523254082,1873726481000000,,,-1265091263263592731,0.9844837188720703,1004.8457188531756,-43.843445354045336,20.216603626429794,1820,30,0.0,15,513789674795230,7,37.9,273.068359375,0.03360000252723694,16,0.0,0.0,1.57542003E9,,,,0,,1,0.0,1.57542003E9
Raw,523254082,1873726481000000,,,-1265091263263592731,0.9844837188720703,1004.8457188531756,-43.843445354045336,20.216603626429794,1820,2,0.0,7183,513789665752521,27,24.5,-28.591623306274414,0.5370000004768372,16,0.0,0.0,1.57542003E9,,,,0,,6,0.0,1.57542003E9
Raw,523254083,1873726481000000,,,-1265091263263592731,0.9844837188720703,1004.8457188531756,-43.843445354045336,20.216603626429794,1820,11,0.0,7183,513789658642442,17,28.7,134.15606689453125,0.061799999326467514,16,0.0,0.0,1.57542003E9,,,,0,,6,0.0,1.57542003E9
Raw,523254083,1873726481000000,,,-1265091263263592731,0.9844837188720703,1004.8457188531756,-43.843445354045336,20.216603626429794,1820,25,0.0,7183,513789658530497,11,33.7,283.0029296875,0.04000000283122063,16,0.0,0.0,1.57542003E9,,,,0,,6,0.0,1.57542003E9
Raw,523254083,1873726481000000,,,-1265091263263592731,0.9844837188720703,1004.8457188531756,-43.843445354045336,20.216603626429794,1820,36,0.0,7183,513789661586372,24,25.3,-351.918701171875,0.20489999651908875,16,0.0,0.0,1.57542003E9,,,,0,,6,0.0,1.57542003E9
Fix,gps,37.428039,-122.174149,3.842010,0.000000,6.432000,1582929773000
Raw,523255081,1873727278000000,,,-1265091263262920959,0.7641401290893555,805.1987388171256,-44.456726172842075,15.356790222680988,1821,14,0.0,207,6172474390680,27,24.9,-108.7596206665039,0.872499942779541,16,0.0,0.0,1.59806246E9,,,,0,,3,0.0,1.59806246E9
Raw,523255081,1873727278000000,,,-1265091263262920959,0.7641401290893555,805.1987388171256,-44.456726172842075,15.356790222680988,1821,13,0.0,207,6172468583226,27,24.0,367.962646484375,0.8634999394416809,16,0.0,0.0,1.60087501E9,,,,0,,3,0.0,1.60087501E9
Raw,523255081,1873727278000000,,,-1265091263262920959,0.7641401290893555,805.1987388171256,-44.456726172842075,15.356790222680988,1821,23,0.0,207,6172471332644,10,34.1,329.9317321777344,0.23360000550746918,16,0.0,0.0,1.60368755E9,,,,0,,3,0.0,1.60368755E9
Raw,523255081,1873727278000000,,,-1265091263262920959,0.7641401290893555,805.1987388171256,-44.456726172842075,15.356790222680988,1821,1,0.0,15,513790462428718,8,36.0,-89.30876922607422,0.04700000211596489,16,0.0,0.0,1.57542003E9,,,,0,,1,0.0,1.57542003E9
Raw,523255081,1873727278000000,,,-1265091263262920959,0.7641401290893555,805.1987388171256,-44.456726172842075,15.356790222680988,1821,7,0.0,15,513790463981173,35,22.2,515.8671264648438,0.7759999632835388,16,0.0,0.0,1.57542003E9,,,,0,,1,0.0,1.57542003E9
Raw,523255082,1873727278000000,,,-1265091263262920959,0.7641401290893555,805.1987388171256,-44.456726172842075,15.356790222680988,1821,11,0.0,15,513790459785446,16,29.7,447.6992492675781,0.05820000171661377,16,0.0,0.0,1.57542003E9,,,,0,,1,0.0,1.57542003E9
Raw,523255082,1873727278000000,,,-1265091263262920959,0.7641401290893555,805.1987388171256,-44.456726172842075,15.356790222680988,1821,17,0.0,15,513790471951072,10,34.4,-252.08628845214844,0.03359999880194664,16,0.0,0.0,1.57542003E9,,,,0,,1,0.0,1.57542003E9
Raw,523255082,1873727278000000,,,-1265091263262920959,0.7641401290893555,805.1987388171256,-44.456726172842075,15.356790222680988,1821,28,0.0,15,513790471276701,31,23.2,149.4281005859375,0.7279999852180481,16,0.0,0.0,1.57542003E9,,,,0,,1,0.0,1.57542003E9
Raw,523255083,1873727278000000,,,-1265091263262920959,0.7641401290893555,805.1987388171256,-44.456726172842075,15.356790222680988,1821,30,0.0,15,513790471122700,6,38.3,275.7054138183594,0.027700001373887062,16,0.0,0.0,1.57542003E9,,,,0,,1,0.0,1.57542003E9
Raw,523255083,1873727278000000,,,-1265091263262920959,0.7641401290893555,805.1987388171256,-44.456726172842075,15.356790222680988,1821,2,0.0,7183,513790462080799,27,24.3,-26.622085571289062,0.5444999933242798,16,0.0,0.0,1.57542003E9,,,,0,,6,0.0,1.57542003E9
Raw,523255083,1873727278000000,,,-1265091263262920959,0.7641401290893555,805.1987388171256,-44.456726172842075,15.356790222680988,1821,11,0.0,7183,513790454970275,19,27.4,134.5269775390625,0.0966000035405159,16,0.0,0.0,1.57542003E9,,,,0,,6,0.0,1.57542003E9
Raw,523255083,1873727278000000,,,-1265091263262920959,0.7641401290893555,805.1987388171256,-44.456726172842075,15.356790222680988,1821,25,0.0,7183,513790454857952,11,33.6,285.4880676269531,0.28450000286102295,16,0.0,0.0,1.57542003E9,,,,0,,6,0.0,1.57542003E9
Fix,gps,37.428042,-122.174152,4.684540,0.000000,5.360000,1582929774000
Raw,523256080,1873728272000000,,,-1265091263262006151,-0.7721042037010193,1003.6417515948415,-35.934569705305854,16.095297228130132,1822,14,0.0,207,6173467476056,27,24.3,-106.31147766113281,0.8619999885559082,16,0.0,0.0,1.59806246E9,,,,0,,3,0.0,1.59806246E9
Raw,523256080,1873728272000000,,,-1265091263262006151,-0.7721042037010193,1003.6417515948415,-35.934569705305854,16.095297228130132,1822,13,0.0,207,6173461666978,27,24.7,370.4439392089844,0.8829999566078186,16,0.0,0.0,1.60087501E9,,,,0,,3,0.0,1.60087501E9
Raw,523256081,1873728272000000,,,-1265091263262006151,-0.7721042037010193,1003.6417515948415,-35.934569705305854,16.095297228130132,1822,23,0.0,207,6173464416627,11,33.3,332.6916809082031,0.22500000894069672,16,0.0,0.0,1.60368755E9,,,,0,,3,0.0,1.60368755E9
Raw,523256081,1873728272000000,,,-1265091263262006151,-0.7721042037010193,1003.6417515948415,-35.934569705305854,16.095297228130132,1822,1,0.0,15,513791455514048,9,35.2,-86.55696105957031,0.03750000149011612,16,0.0,0.0,1.57542003E9,,,,0,,1,0.0,1.57542003E9
Raw,523256081,1873728272000000,,,-1265091263262006151,-0.7721042037010193,1003.6417515948415,-35.934569705305854,16.095297228130132,1822,11,0.0,15,513791452868942,27,24.2,450.09210205078125,0.6694999933242798,16,0.0,0.0,1.57542003E9,,,,0,,1,0.0,1.57542003E9
Raw,523256081,1873728272000000,,,-1265091263262006151,-0.7721042037010193,1003.6417515948415,-35.934569705305854,16.095297228130132,1822,17,0.0,15,513791465036938,11,33.9,-249.44482421875,0.026499999687075615,16,0.0,0.0,1.57542003E9,,,,0,,1,0.0,1.57542003E9
Raw,523256081,1873728272000000,,,-1265091263262006151,-0.7721042037010193,1003.6417515948415,-35.934569705305854,16.095297228130132,1822,30,0.0,15,513791464206823,6,39.8,278.3407897949219,0.016300000250339508,16,0.0,0.0,1.57542003E9,,,,0,,1,0.0,1.57542003E9
Raw,523256081,1873728272000000,,,-1265091263262006151,-0.7721042037010193,1003.6417515948415,-35.934569705305854,16.095297228130132,1822,2,0.0,7183,513791455165918,24,25.2,-23.881855010986328,0.515999972820282,16,0.0,0.0,1.57542003E9,,,,0,,6,0.0,1.57542003E9
Raw,523256082,1873728272000000,,,-1265091263262006151,-0.7721042037010193,1003.6417515948415,-35.934569705305854,16.095297228130132,1822,11,0.0,7183,513791448054887,27,24.5,138.6194305419922,0.5414999723434448,16,0.0,0.0,1.57542003E9,,,,0,,6,0.0,1.57542003E9
Raw,523256082,1873728272000000,,,-1265091263262006151,-0.7721042037010193,1003.6417515948415,-35.934569705305854,16.095297228130132,1822,25,0.0,7183,513791447942052,10,34.3,287.9809265136719,0.2600000202655792,16,0.0,0.0,1.57542003E9,,,,0,,6,0.0,1.57542003E9
Raw,523256082,1873728272000000,,,-1265091263262006151,-0.7721042037010193,1003.6417515948415,-35.934569705305854,16.095297228130132,1822,36,0.0,7183,513791451001699,19,27.3,-347.44769287109375,0.4360000193119049,16,0.0,0.0,1.57542003E9,,,,0,,6,0.0,1.57542003E9
Fix,gps,37.428047,-122.174155,5.550323,0.000000,6.432000,1582929775000
Raw,523257081,1873729284000000,,,-1265091263261403032,-0.8392982482910156,1003.6242892965674,-27.093446007340713,15.276384357295662,1823,14,0.0,207,6174478873126,31,23.9,-104.14472961425781,0.9384999871253967,16,0.0,0.0,1.59806246E9,,,,0,,3,0.0,1.59806246E9
Raw,523257081,1873729284000000,,,-1265091263261403032,-0.8392982482910156,1003.6242892965674,-27.093446007340713,15.276384357295662,1823,13,0.0,207,6174473062610,27,24.6,373.35595703125,0.8709999918937683,16,0.0,0.0,1.60087501E9,,,,0,,3,0.0,1.60087501E9
Raw,523257081,1873729284000000,,,-1265091263261403032,-0.8392982482910156,1003.6242892965674,-27.093446007340713,15.276384357295662,1823,23,0.0,207,6174475812365,11,33.5,335.490234375,0.24150000512599945,16,0.0,0.0,1.60368755E9,,,,0,,3,0.0,1.60368755E9
Raw,523257082,1873729284000000,,,-1265091263261403032,-0.8392982482910156,1003.6242892965674,-27.093446007340713,15.276384357295662,1823,1,0.0,15,513792466911198,10,34.9,-83.75556945800781,0.026100000366568565,16,0.0,0.0,1.57542003E9,,,,0,,1,0.0,1.57542003E9
Raw,523257082,1873729284000000,,,-1265091263261403032,-0.8392982482910156,1003.6242892965674,-27.093446007340713,15.276384357295662,1823,7,0.0,15,513792468459797,35,22.1,521.9375,0.7834999561309814,16,0.0,0.0,1.57542003E9,,,,0,,1,0.0,1.57542003E9
Raw,523257082,1873729284000000,,,-1265091263261403032,-0.8392982482910156,1003.6242892965674,-27.093446007340713,15.276384357295662,1823,11,0.0,15,513792464264306,24,25.8,453.16546630859375,0.18540000915527344,16,0.0,0.0,1.57542003E9,,,,0,,1,0.0,1.57542003E9
Raw,523257082,1873729284000000,,,-1265091263261403032,-0.8392982482910156,1003.6242892965674,-27.093446007340713,15.276384357295662,1823,17,0.0,15,513792476434622,9,35.8,-246.6675262451172,0.039000000804662704,16,0.0,0.0,1.57542003E9,,,,0,,1,0.0,1.57542003E9
Raw,523257082,1873729284000000,,,-1265091263261403032,-0.8392982482910156,1003.6242892965674,-27.093446007340713,15.276384357295662,1823,28,0.0,15,513792475757652,31,23.5,154.40428161621094,0.6739999651908875,16,0.0,0.0,1.57542003E9,,,,0,,1,0.0,1.57542003E9
Raw,523257082,1873729284000000,,,-1265091263261403032,-0.8392982482910156,1003.6242892965674,-27.093446007340713,15.276384357295662,1823,30,0.0,15,513792475602739,6,39.5,281.07867431640625,0.03280000016093254,16,0.0,0.0,1.57542003E9,,,,0,,1,0.0,1.57542003E9
Raw,523257083,1873729284000000,,,-1265091263261403032,-0.8392982482910156,1003.6242892965674,-27.093446007340713,15.276384357295662,1823,2,0.0,7183,513792466562848,24,25.3,-20.39948272705078,0.5144999623298645,16,0.0,0.0,1.57542003E9,,,,0,,6,0.0,1.57542003E9
Raw,523257083,1873729284000000,,,-1265091263261403032,-0.8392982482910156,1003.6242892965674,-27.093446007340713,15.276384357295662,1823,11,0.0,7183,513792459451207,19,27.2,142.13034057617188,0.4360000193119049,16,0.0,0.0,1.57542003E9,,,,0,,6,0.0,1.57542003E9
Raw,523257083,1873729284000000,,,-1265091263261403032,-0.8392982482910156,1003.6242892965674,-27.093446007340713,15.276384357295662,1823,25,0.0,7183,513792459337911,10,34.0,290.5498962402344,0.26600000262260437,16,0.0,0.0,1.57542003E9,,,,0,,6,0.0,1.57542003E9
Raw,523257083,1873729284000000,,,-1265091263261403032,-0.8392982482910156,1003.6242892965674,-27.093446007340713,15.276384357295662,1823,36,0.0,7183,513792462399713,21,26.9,-344.90728759765625,0.47450000047683716,16,0.0,0.0,1.57542003E9,,,,0,,6,0.0,1.57542003E9
Fix,gps,37.428048,-122.174157,5.183624,0.000000,5.360000,1582929776000
Raw,523258081,1873730278000000,,,-1265091263260531604,0.03781700134277344,1003.5178856924176,-17.972174226568786,15.287211282554363,1824,14,0.0,207,6175472002163,35,22.8,-102.52201080322266,0.9894999861717224,16,0.0,0.0,1.59806246E9,,,,0,,3,0.0,1.59806246E9
Raw,523258081,1873730278000000,,,-1265091263260531604,0.03781700134277344,1003.5178856924176,-17.972174226568786,15.287211282554363,1824,13,0.0,207,6175466189927,31,23.0,373.6087646484375,0.9204999804496765,16,0.0,0.0,1.60087501E9,,,,0,,3,0.0,1.60087501E9
Raw,523258081,1873730278000000,,,-1265091263260531604,0.03781700134277344,1003.5178856924176,-17.972174226568786,15.287211282554363,1824,23,0.0,207,6175468939769,9,35.0,336.65899658203125,0.22700001299381256,16,0.0,0.0,1.60368755E9,,,,0,,3,0.0,1.60368755E9
Raw,523258082,1873730278000000,,,-1265091263260531604,0.03781700134277344,1003.5178856924176,-17.972174226568786,15.287211282554363,1824,1,0.0,15,513793460040055,9,35.9,-82.64675903320312,0.04500000178813934,16,0.0,0.0,1.57542003E9,,,,0,,1,0.0,1.57542003E9
Raw,523258082,1873730278000000,,,-1265091263260531604,0.03781700134277344,1003.5178856924176,-17.972174226568786,15.287211282554363,1824,7,0.0,15,513793461586534,27,24.6,523.3931884765625,0.6330000162124634,16,0.0,0.0,1.57542003E9,,,,0,,1,0.0,1.57542003E9
Raw,523258082,1873730278000000,,,-1265091263260531604,0.03781700134277344,1003.5178856924176,-17.972174226568786,15.287211282554363,1824,11,0.0,15,513793457391314,35,22.8,454.1168518066406,0.7369999885559082,16,0.0,0.0,1.57542003E9,,,,0,,1,0.0,1.57542003E9
Raw,523258082,1873730278000000,,,-1265091263260531604,0.03781700134277344,1003.5178856924176,-17.972174226568786,15.287211282554363,1824,17,0.0,15,513793469564006,8,36.4,-245.53070068359375,0.027500001713633537,16,0.0,0.0,1.57542003E9,,,,0,,1,0.0,1.57542003E9
Raw,523258082,1873730278000000,,,-1265091263260531604,0.03781700134277344,1003.5178856924176,-17.972174226568786,15.287211282554363,1824,28,0.0,15,513793468885659,35,22.9,155.1844940185547,0.7234999537467957,16,0.0,0.0,1.57542003E9,,,,0,,1,0.0,1.57542003E9
Raw,523258083,1873730278000000,,,-1265091263260531604,0.03781700134277344,1003.5178856924176,-17.972174226568786,15.287211282554363,1824,30,0.0,15,513793468730363,5,40.0,282.188720703125,0.02120000123977661,16,0.0,0.0,1.57542003E9,,,,0,,1,0.0,1.57542003E9
Raw,523258083,1873730278000000,,,-1265091263260531604,0.03781700134277344,1003.5178856924176,-17.972174226568786,15.287211282554363,1824,2,0.0,7183,513793459691463,24,25.3,-19.79943084716797,0.2079000025987625,16,0.0,0.0,1.57542003E9,,,,0,,6,0.0,1.57542003E9
Raw,523258083,1873730278000000,,,-1265091263260531604,0.03781700134277344,1003.5178856924176,-17.972174226568786,15.287211282554363,1824,11,0.0,7183,513793452579307,17,28.2,142.15811157226562,0.07079999893903732,16,0.0,0.0,1.57542003E9,,,,0,,6,0.0,1.57542003E9
Raw,523258083,1873730278000000,,,-1265091263260531604,0.03781700134277344,1003.5178856924176,-17.972174226568786,15.287211282554363,1824,25,0.0,7183,513793452465521,11,33.2,291.0608825683594,0.049000002443790436,16,0.0,0.0,1.57542003E9,,,,0,,6,0.0,1.57542003E9
