# 
# Header Description:
# 
# Version: v2.0.0.1 Platform: 10 Manufacturer: Google Model: Pixel 3
# 
# Raw,ElapsedRealtimeMillis,TimeNanos,LeapSecond,TimeUncertaintyNanos,FullBiasNanos,BiasNanos,BiasUncertaintyNanos,DriftNanosPerSecond,DriftUncertaintyNanosPerSecond,HardwareClockDiscontinuityCount,Svid,TimeOffsetNanos,State,ReceivedSvTimeNanos,ReceivedSvTimeUncertaintyNanos,Cn0DbHz,PseudorangeRateMetersPerSecond,PseudorangeRateUncertaintyMetersPerSecond,AccumulatedDeltaRangeState,AccumulatedDeltaRangeMeters,AccumulatedDeltaRangeUncertaintyMeters,CarrierFrequencyHz,CarrierCycles,CarrierPhase,CarrierPhaseUncertainty,MultipathIndicator,SnrInDb,ConstellationType,AgcDb,CarrierFrequencyHz
# 
# Fix,Provider,Latitude,Longitude,Altitude,Speed,Accuracy,(UTC)TimeInMs
# 
# Nav,Svid,Type,Status,MessageId,Sub-messageId,Data(Bytes)
# 
Raw,686560837,3859500987000000,,,-1261204177461509552,0.7431049346923828,29.364087822614238,-43.1075707213453,13.711205741271785,5689,14,0.0,207,5660371874640,17,28.1,476.2115173339844,0.24980001151561737,16,0.0,0.0,1.59806246E9,,,,0,,3,2.18,1.59806246E9
Raw,686560838,3859500987000000,,,-1261204177461509552,0.7431049346923828,29.364087822614238,-43.1075707213453,13.711205741271785,5689,6,0.0,207,5660377661632,35,22.5,-273.987548828125,1.0119999647140503,16,0.0,0.0,1.59975002E9,,,,0,,3,2.18,1.59975002E9
Raw,686560839,3859500987000000,,,-1261204177461509552,0.7431049346923828,29.364087822614238,-43.1075707213453,13.711205741271785,5689,18,0.0,207,5660370641380,16,29.1,-795.1209106445312,0.24169999361038208,16,0.0,0.0,1.60031245E9,,,,0,,3,2.18,1.60031245E9
Raw,686560839,3859500987000000,,,-1261204177461509552,0.7431049346923828,29.364087822614238,-43.1075707213453,13.711205741271785,5689,16,0.0,207,5660377637200,17,28.7,-346.89239501953125,0.2587999999523163,16,0.0,0.0,1.60143744E9,,,,0,,3,2.18,1.60143744E9
Raw,686560839,3859500987000000,,,-1261204177461509552,0.7431049346923828,29.364087822614238,-43.1075707213453,13.711205741271785,5689,15,0.0,207,5660381249853,88,17.5,149.44711303710938,3.618000030517578,16,0.0,0.0,1.602E9,,,,0,,3,2.18,1.602E9
Raw,686560839,3859500987000000,,,-1261204177461509552,0.7431049346923828,29.364087822614238,-43.1075707213453,13.711205741271785,5689,5,0.0,207,5660379445395,70,18.4,530.1209106445312,2.7750000953674316,16,0.0,0.0,1.60256256E9,,,,0,,3,2.18,1.60256256E9
Raw,686560839,3859500987000000,,,-1261204177461509552,0.7431049346923828,29.364087822614238,-43.1075707213453,13.711205741271785,5689,17,0.0,207,5660376930095,10,34.4,-433.2938232421875,0.24610000848770142,16,0.0,0.0,1.60424998E9,,,,0,,3,2.18,1.60424998E9
Raw,686560839,3859500987000000,,,-1261204177461509552,0.7431049346923828,29.364087822614238,-43.1075707213453,13.711205741271785,5689,4,0.0,207,5660369023447,27,24.3,827.037841796875,0.8799999952316284,16,0.0,0.0,1.60537498E9,,,,0,,3,2.18,1.60537498E9
Raw,686560839,3859500987000000,,,-1261204177461509552,0.7431049346923828,29.364087822614238,-43.1075707213453,13.711205741271785,5689,1,0.0,15,426878363200584,75,25.7,-510.1107482910156,5.081000328063965,16,0.0,0.0,1.57542003E9,,,,0,,1,-0.9,1.57542003E9
Raw,686560839,3859500987000000,,,-1261204177461509552,0.7431049346923828,29.364087822614238,-43.1075707213453,13.711205741271785,5689,5,0.0,15,426878368147890,9,35.6,317.97882080078125,0.03360000252723694,16,0.0,0.0,1.57542003E9,,,,0,,1,-0.9,1.57542003E9
Raw,686560839,3859500987000000,,,-1261204177461509552,0.7431049346923828,29.364087822614238,-43.1075707213453,13.711205741271785,5689,7,0.0,15,426878378270910,7,37.7,142.52818298339844,0.047600001096725464,16,0.0,0.0,1.57542003E9,,,,0,,1,-0.9,1.57542003E9
Raw,686560839,3859500987000000,,,-1261204177461509552,0.7431049346923828,29.364087822614238,-43.1075707213453,13.711205741271785,5689,8,0.0,15,426878371518843,9,35.2,448.0285949707031,0.038100000470876694,16,0.0,0.0,1.57542003E9,,,,0,,1,-0.9,1.57542003E9
Raw,686560839,3859500987000000,,,-1261204177461509552,0.7431049346923828,29.364087822614238,-43.1075707213453,13.711205741271785,5689,9,0.0,15,426878369796834,14,30.6,679.654296875,0.03930000215768814,16,0.0,0.0,1.57542003E9,,,,0,,1,-0.9,1.57542003E9
Raw,686560839,3859500987000000,,,-1261204177461509552,0.7431049346923828,29.364087822614238,-43.1075707213453,13.711205741271785,5689,11,0.0,15,426878370227717,16,29.6,-262.48785400390625,0.04170000180602074,16,0.0,0.0,1.57542003E9,,,,0,,1,-0.9,1.57542003E9
Raw,686560840,3859500987000000,,,-1261204177461509552,0.7431049346923828,29.364087822614238,-43.1075707213453,13.711205741271785,5689,13,0.0,15,426878372054895,12,32.4,-589.9716796875,0.04190000146627426,16,0.0,0.0,1.57542003E9,,,,0,,1,-0.9,1.57542003E9
Raw,686560840,3859500987000000,,,-1261204177461509552,0.7431049346923828,29.364087822614238,-43.1075707213453,13.711205741271785,5689,15,0.0,15,426878363493117,72,20.1,-666.408447265625,3.9210000038146973,16,0.0,0.0,1.57542003E9,,,,0,,1,-0.9,1.57542003E9
Raw,686560840,3859500987000000,,,-1261204177461509552,0.7431049346923828,29.364087822614238,-43.1075707213453,13.711205741271785,5689,17,0.0,15,426878369601206,11,33.5,-686.9117431640625,0.036400001496076584,16,0.0,0.0,1.57542003E9,,,,0,,1,-0.9,1.57542003E9
Raw,686560840,3859500987000000,,,-1261204177461509552,0.7431049346923828,29.364087822614238,-43.1075707213453,13.711205741271785,5689,27,0.0,15,426878362581238,46,20.2,655.742431640625,0.9194999933242798,16,0.0,0.0,1.57542003E9,,,,0,,1,-0.9,1.57542003E9
Raw,686560840,3859500987000000,,,-1261204177461509552,0.7431049346923828,29.364087822614238,-43.1075707213453,13.711205741271785,5689,28,0.0,15,426878379120361,16,29.6,-192.9017333984375,0.0552000030875206,16,0.0,0.0,1.57542003E9,,,,0,,1,-0.9,1.57542003E9
Raw,686560840,3859500987000000,,,-1261204177461509552,0.7431049346923828,29.364087822614238,-43.1075707213453,13.711205741271785,5689,30,0.0,15,426878379894543,21,26.1,-147.73757934570312,0.10970000177621841,16,0.0,0.0,1.57542003E9,,,,0,,1,-0.9,1.57542003E9
Raw,686560840,3859500987000000,,,-1261204177461509552,0.7431049346923828,29.364087822614238,-43.1075707213453,13.711205741271785,5689,1,0.0,7183,426878368515573,24,25.6,145.09141540527344,0.4058000147342682,16,0.0,0.0,1.57542003E9,,,,0,,6,-0.95,1.57542003E9
Raw,686560840,3859500987000000,,,-1261204177461509552,0.7431049346923828,29.364087822614238,-43.1075707213453,13.711205741271785,5689,4,0.0,7183,426878367648857,17,28.7,263.6449890136719,0.055800002068281174,16,0.0,0.0,1.57542003E9,,,,0,,6,-0.95,1.57542003E9
Raw,686560840,3859500987000000,,,-1261204177461509552,0.7431049346923828,29.364087822614238,-43.1075707213453,13.711205741271785,5689,9,0.0,7183,426878369941943,16,29.4,-261.28839111328125,0.05220000073313713,16,0.0,0.0,1.57542003E9,,,,0,,6,-0.95,1.57542003E9
Raw,686560840,3859500987000000,,,-1261204177461509552,0.7431049346923828,29.364087822614238,-43.1075707213453,13.711205741271785,5689,13,0.0,7183,426878356847769,24,25.2,-31.27052116394043,0.4058000147342682,16,0.0,0.0,1.57542003E9,,,,0,,6,-0.95,1.57542003E9
Raw,686560840,3859500987000000,,,-1261204177461509552,0.7431049346923828,29.364087822614238,-43.1075707213453,13.711205741271785,5689,19,0.0,7183,426878357906074,31,23.3,581.0617065429688,0.6019999980926514,16,0.0,0.0,1.57542003E9,,,,0,,6,-0.95,1.57542003E9
Raw,686560840,3859500987000000,,,-1261204177461509552,0.7431049346923828,29.364087822614238,-43.1075707213453,13.711205741271785,5689,21,0.0,7183,426878358206015,31,23.6,389.7880554199219,0.6035000085830688,16,0.0,0.0,1.57542003E9,,,,0,,6,-0.95,1.57542003E9
Raw,686560841,3859500987000000,,,-1261204177461509552,0.7431049346923828,29.364087822614238,-43.1075707213453,13.711205741271785,5689,26,0.0,7183,426878362243956,24,25.5,-410.8685302734375,0.40880000591278076,16,0.0,0.0,1.57542003E9,,,,0,,6,-0.95,1.57542003E9
Raw,686560841,3859500987000000,,,-1261204177461509552,0.7431049346923828,29.364087822614238,-43.1075707213453,13.711205741271785,5689,31,0.0,7183,426878365683742,9,35.6,-238.78529357910156,0.0471000038087368,16,0.0,0.0,1.57542003E9,,,,0,,6,-0.95,1.57542003E9
Fix,gps,37.426911,-122.173297,15.316406,0.000000,3.216000,1581028461000
Raw,686561823,3859501987000000,,,-1261204177461509596,0.7250747680664062,30.051400244701654,-44.80051564443264,14.607491284239293,5689,14,0.0,207,5661371873064,16,29.5,463.6521911621094,0.24320000410079956,16,0.0,0.0,1.59806246E9,,,,0,,3,2.07,1.59806246E9
Raw,686561823,3859501987000000,,,-1261204177461509596,0.7250747680664062,30.051400244701654,-44.80051564443264,14.607491284239293,5689,6,0.0,207,5661377662564,35,22.0,-287.4803161621094,1.0119999647140503,16,0.0,0.0,1.59975002E9,,,,0,,3,2.07,1.59975002E9
Raw,686561823,3859501987000000,,,-1261204177461509596,0.7250747680664062,30.051400244701654,-44.80051564443264,14.607491284239293,5689,18,0.0,207,5661370644068,16,29.8,-807.657958984375,0.24169999361038208,16,0.0,0.0,1.60031245E9,,,,0,,3,2.07,1.60031245E9
Raw,686561823,3859501987000000,,,-1261204177461509596,0.7250747680664062,30.051400244701654,-44.80051564443264,14.607491284239293,5689,16,0.0,207,5661377638338,14,30.0,-359.4396667480469,0.25130000710487366,16,0.0,0.0,1.60143744E9,,,,0,,3,2.07,1.60143744E9
Raw,686561823,3859501987000000,,,-1261204177461509596,0.7250747680664062,30.051400244701654,-44.80051564443264,14.607491284239293,5689,15,0.0,207,5661381249355,113,17.5,149.44711303710938,5.118000030517578,16,0.0,0.0,1.602E9,,,,0,,3,2.07,1.602E9
Raw,686561823,3859501987000000,,,-1261204177461509596,0.7250747680664062,30.051400244701654,-44.80051564443264,14.607491284239293,5689,5,0.0,207,5661379443627,89,18.4,530.1209106445312,4.275000095367432,16,0.0,0.0,1.60256256E9,,,,0,,3,2.07,1.60256256E9
Raw,686561823,3859501987000000,,,-1261204177461509596,0.7250747680664062,30.051400244701654,-44.80051564443264,14.607491284239293,5689,17,0.0,207,5661376931564,9,35.3,-445.8432922363281,0.24560000002384186,16,0.0,0.0,1.60424998E9,,,,0,,3,2.07,1.60424998E9
Raw,686561823,3859501987000000,,,-1261204177461509596,0.7250747680664062,30.051400244701654,-44.80051564443264,14.607491284239293,5689,4,0.0,207,5661369020621,21,26.8,813.6017456054688,0.7900000214576721,16,0.0,0.0,1.60537498E9,,,,0,,3,2.07,1.60537498E9
Raw,686561824,3859501987000000,,,-1261204177461509596,0.7250747680664062,30.051400244701654,-44.80051564443264,14.607491284239293,5689,1,0.0,15,426879363202285,112,25.7,-510.1107482910156,6.581000328063965,16,0.0,0.0,1.57542003E9,,,,0,,1,-1.02,1.57542003E9
Raw,686561824,3859501987000000,,,-1261204177461509596,0.7250747680664062,30.051400244701654,-44.80051564443264,14.607491284239293,5689,5,0.0,15,426879368146862,8,36.3,305.5102233886719,0.03319999948143959,16,0.0,0.0,1.57542003E9,,,,0,,1,-1.02,1.57542003E9
Raw,686561824,3859501987000000,,,-1261204177461509596,0.7250747680664062,30.051400244701654,-44.80051564443264,14.607491284239293,5689,7,0.0,15,426879378270460,6,38.6,129.9732666015625,0.0471000038087368,16,0.0,0.0,1.57542003E9,,,,0,,1,-1.02,1.57542003E9
Raw,686561824,3859501987000000,,,-1261204177461509596,0.7250747680664062,30.051400244701654,-44.80051564443264,14.607491284239293,5689,8,0.0,15,426879371517371,8,36.9,435.5220031738281,0.037700001150369644,16,0.0,0.0,1.57542003E9,,,,0,,1,-1.02,1.57542003E9
Raw,686561824,3859501987000000,,,-1261204177461509596,0.7250747680664062,30.051400244701654,-44.80051564443264,14.607491284239293,5689,9,0.0,15,426879369794613,13,31.9,667.0999145507812,0.038700003176927567,16,0.0,0.0,1.57542003E9,,,,0,,1,-1.02,1.57542003E9
Raw,686561824,3859501987000000,,,-1261204177461509596,0.7250747680664062,30.051400244701654,-44.80051564443264,14.607491284239293,5689,11,0.0,15,426879370228623,12,32.0,-274.91064453125,0.03890000283718109,16,0.0,0.0,1.57542003E9,,,,0,,1,-1.02,1.57542003E9
Raw,686561824,3859501987000000,,,-1261204177461509596,0.7250747680664062,30.051400244701654,-44.80051564443264,14.607491284239293,5689,13,0.0,15,426879372056891,11,33.4,-602.49658203125,0.04090000316500664,16,0.0,0.0,1.57542003E9,,,,0,,1,-1.02,1.57542003E9
Raw,686561824,3859501987000000,,,-1261204177461509596,0.7250747680664062,30.051400244701654,-44.80051564443264,14.607491284239293,5689,15,0.0,15,426879363495340,100,20.1,-666.408447265625,5.421000003814697,16,0.0,0.0,1.57542003E9,,,,0,,1,-1.02,1.57542003E9
Raw,686561824,3859501987000000,,,-1261204177461509596,0.7250747680664062,30.051400244701654,-44.80051564443264,14.607491284239293,5689,17,0.0,15,426879369603524,10,34.6,-699.5199584960938,0.035600002855062485,16,0.0,0.0,1.57542003E9,,,,0,,1,-1.02,1.57542003E9
Raw,686561824,3859501987000000,,,-1261204177461509596,0.7250747680664062,30.051400244701654,-44.80051564443264,14.607491284239293,5689,27,0.0,15,426879362579050,40,21.1,641.3087158203125,0.8495000004768372,16,0.0,0.0,1.57542003E9,,,,0,,1,-1.02,1.57542003E9
Raw,686561825,3859501987000000,,,-1261204177461509596,0.7250747680664062,30.051400244701654,-44.80051564443264,14.607491284239293,5689,28,0.0,15,426879379121022,16,29.0,-205.5171661376953,0.48500001430511475,16,0.0,0.0,1.57542003E9,,,,0,,1,-1.02,1.57542003E9
Raw,686561825,3859501987000000,,,-1261204177461509596,0.7250747680664062,30.051400244701654,-44.80051564443264,14.607491284239293,5689,30,0.0,15,426879379895065,19,27.3,-162.5107879638672,0.5249999761581421,16,0.0,0.0,1.57542003E9,,,,0,,1,-1.02,1.57542003E9
Raw,686561825,3859501987000000,,,-1261204177461509596,0.7250747680664062,30.051400244701654,-44.80051564443264,14.607491284239293,5689,1,0.0,7183,426879368515119,21,26.1,132.548828125,0.13520000874996185,16,0.0,0.0,1.57542003E9,,,,0,,6,-1.07,1.57542003E9
Raw,686561825,3859501987000000,,,-1261204177461509596,0.7250747680664062,30.051400244701654,-44.80051564443264,14.607491284239293,5689,4,0.0,7183,426879367647994,17,28.7,251.1625518798828,0.055800002068281174,16,0.0,0.0,1.57542003E9,,,,0,,6,-1.07,1.57542003E9
Raw,686561825,3859501987000000,,,-1261204177461509596,0.7250747680664062,30.051400244701654,-44.80051564443264,14.607491284239293,5689,9,0.0,7183,426879369942838,16,29.7,-273.8807373046875,0.05220000073313713,16,0.0,0.0,1.57542003E9,,,,0,,6,-1.07,1.57542003E9
Raw,686561825,3859501987000000,,,-1261204177461509596,0.7250747680664062,30.051400244701654,-44.80051564443264,14.607491284239293,5689,13,0.0,7183,426879356847898,21,26.4,-43.89201354980469,0.13520000874996185,16,0.0,0.0,1.57542003E9,,,,0,,6,-1.07,1.57542003E9
Raw,686561825,3859501987000000,,,-1261204177461509596,0.7250747680664062,30.051400244701654,-44.80051564443264,14.607491284239293,5689,19,0.0,7183,426879357904168,27,24.4,567.4271850585938,0.5519999861717224,16,0.0,0.0,1.57542003E9,,,,0,,6,-1.07,1.57542003E9
Raw,686561825,3859501987000000,,,-1261204177461509596,0.7250747680664062,30.051400244701654,-44.80051564443264,14.607491284239293,5689,21,0.0,7183,426879358204758,24,25.9,376.0565490722656,0.40880000591278076,16,0.0,0.0,1.57542003E9,,,,0,,6,-1.07,1.57542003E9
Raw,686561825,3859501987000000,,,-1261204177461509596,0.7250747680664062,30.051400244701654,-44.80051564443264,14.607491284239293,5689,26,0.0,7183,426879362245358,21,26.2,-423.50469970703125,0.13819999992847443,16,0.0,0.0,1.57542003E9,,,,0,,6,-1.07,1.57542003E9
Raw,686561825,3859501987000000,,,-1261204177461509596,0.7250747680664062,30.051400244701654,-44.80051564443264,14.607491284239293,5689,31,0.0,7183,426879365684575,9,35.4,-251.37619018554688,0.0471000038087368,16,0.0,0.0,1.57542003E9,,,,0,,6,-1.07,1.57542003E9
Fix,gps,37.426912,-122.173296,15.146851,0.000000,3.216000,1581028462000
Raw,686562823,3859502987000000,,,-1261204177461509641,0.9321842193603516,54.018561058910564,-44.80051564443264,27.302804735723548,5690,14,0.0,207,5662371871547,14,30.2,460.3641662597656,0.6330000162124634,16,0.0,0.0,1.59806246E9,,,,0,,3,2.12,1.59806246E9
Raw,686562823,3859502987000000,,,-1261204177461509641,0.9321842193603516,54.018561058910564,-44.80051564443264,27.302804735723548,5690,6,0.0,207,5662377663502,35,22.8,-290.038330078125,1.0119999647140503,16,0.0,0.0,1.59975002E9,,,,0,,3,2.12,1.59975002E9
Raw,686562823,3859502987000000,,,-1261204177461509641,0.9321842193603516,54.018561058910564,-44.80051564443264,27.302804735723548,5690,18,0.0,207,5662370646728,13,31.1,-810.5616455078125,0.2401999980211258,16,0.0,0.0,1.60031245E9,,,,0,,3,2.12,1.60031245E9
Raw,686562823,3859502987000000,,,-1261204177461509641,0.9321842193603516,54.018561058910564,-44.80051564443264,27.302804735723548,5690,16,0.0,207,5662377639579,17,28.9,-362.39849853515625,0.2587999999523163,16,0.0,0.0,1.60143744E9,,,,0,,3,2.12,1.60143744E9
Raw,686562823,3859502987000000,,,-1261204177461509641,0.9321842193603516,54.018561058910564,-44.80051564443264,27.302804735723548,5690,15,0.0,207,5662381248856,147,17.5,149.44711303710938,6.618000507354736,16,0.0,0.0,1.602E9,,,,0,,3,2.12,1.602E9
Raw,686562824,3859502987000000,,,-1261204177461509641,0.9321842193603516,54.018561058910564,-44.80051564443264,27.302804735723548,5690,5,0.0,207,5662379441784,55,20.2,515.1365356445312,2.615000009536743,16,0.0,0.0,1.60256256E9,,,,0,,3,2.12,1.60256256E9
Raw,686562824,3859502987000000,,,-1261204177461509641,0.9321842193603516,54.018561058910564,-44.80051564443264,27.302804735723548,5690,17,0.0,207,5662376933047,10,34.9,-448.6236267089844,0.24610000848770142,16,0.0,0.0,1.60424998E9,,,,0,,3,2.12,1.60424998E9
Raw,686562824,3859502987000000,,,-1261204177461509641,0.9321842193603516,54.018561058910564,-44.80051564443264,27.302804735723548,5690,4,0.0,207,5662369017923,17,28.6,810.5484619140625,0.7100000381469727,16,0.0,0.0,1.60537498E9,,,,0,,3,2.12,1.60537498E9
Raw,686562824,3859502987000000,,,-1261204177461509641,0.9321842193603516,54.018561058910564,-44.80051564443264,27.302804735723548,5690,1,0.0,15,426880363203987,159,25.7,-510.1107482910156,8.081000328063965,16,0.0,0.0,1.57542003E9,,,,0,,1,-1.0,1.57542003E9
Raw,686562824,3859502987000000,,,-1261204177461509641,0.9321842193603516,54.018561058910564,-44.80051564443264,27.302804735723548,5690,5,0.0,15,426880368145844,7,37.7,302.56903076171875,0.032600000500679016,16,0.0,0.0,1.57542003E9,,,,0,,1,-1.0,1.57542003E9
Raw,686562824,3859502987000000,,,-1261204177461509641,0.9321842193603516,54.018561058910564,-44.80051564443264,27.302804735723548,5690,7,0.0,15,426880378270028,6,39.5,127.10728454589844,0.04660000279545784,16,0.0,0.0,1.57542003E9,,,,0,,1,-1.0,1.57542003E9
Raw,686562824,3859502987000000,,,-1261204177461509641,0.9321842193603516,54.018561058910564,-44.80051564443264,27.302804735723548,5690,8,0.0,15,426880371515930,8,36.9,432.7341613769531,0.037700001150369644,16,0.0,0.0,1.57542003E9,,,,0,,1,-1.0,1.57542003E9
Raw,686562824,3859502987000000,,,-1261204177461509641,0.9321842193603516,54.018561058910564,-44.80051564443264,27.302804735723548,5690,9,0.0,15,426880369792373,11,33.4,664.240478515625,0.036400001496076584,16,0.0,0.0,1.57542003E9,,,,0,,1,-1.0,1.57542003E9
Raw,686562825,3859502987000000,,,-1261204177461509641,0.9321842193603516,54.018561058910564,-44.80051564443264,27.302804735723548,5690,11,0.0,15,426880370229546,11,33.0,-277.69342041015625,0.03790000081062317,16,0.0,0.0,1.57542003E9,,,,0,,1,-1.0,1.57542003E9
Raw,686562825,3859502987000000,,,-1261204177461509641,0.9321842193603516,54.018561058910564,-44.80051564443264,27.302804735723548,5690,13,0.0,15,426880372058896,12,32.5,-605.3660888671875,0.04190000146627426,16,0.0,0.0,1.57542003E9,,,,0,,1,-1.0,1.57542003E9
Raw,686562825,3859502987000000,,,-1261204177461509641,0.9321842193603516,54.018561058910564,-44.80051564443264,27.302804735723548,5690,15,0.0,15,426880363497562,139,20.1,-666.408447265625,6.9210004806518555,16,0.0,0.0,1.57542003E9,,,,0,,1,-1.0,1.57542003E9
Raw,686562825,3859502987000000,,,-1261204177461509641,0.9321842193603516,54.018561058910564,-44.80051564443264,27.302804735723548,5690,17,0.0,15,426880369605868,12,32.7,-702.3754272460938,0.03739999979734421,16,0.0,0.0,1.57542003E9,,,,0,,1,-1.0,1.57542003E9
Raw,686562825,3859502987000000,,,-1261204177461509641,0.9321842193603516,54.018561058910564,-44.80051564443264,27.302804735723548,5690,27,0.0,15,426880362576911,48,21.1,641.3087158203125,2.3494999408721924,16,0.0,0.0,1.57542003E9,,,,0,,1,-1.0,1.57542003E9
Raw,686562825,3859502987000000,,,-1261204177461509641,0.9321842193603516,54.018561058910564,-44.80051564443264,27.302804735723548,5690,28,0.0,15,426880379121696,16,29.7,-208.3965606689453,0.0552000030875206,16,0.0,0.0,1.57542003E9,,,,0,,1,-1.0,1.57542003E9
Raw,686562825,3859502987000000,,,-1261204177461509641,0.9321842193603516,54.018561058910564,-44.80051564443264,27.302804735723548,5690,30,0.0,15,426880379895638,16,29.9,-165.46986389160156,0.4150000214576721,16,0.0,0.0,1.57542003E9,,,,0,,1,-1.0,1.57542003E9
Raw,686562825,3859502987000000,,,-1261204177461509641,0.9321842193603516,54.018561058910564,-44.80051564443264,27.302804735723548,5690,1,0.0,7183,426880368514675,24,25.7,129.7781524658203,0.4058000147342682,16,0.0,0.0,1.57542003E9,,,,0,,6,-1.01,1.57542003E9
Raw,686562825,3859502987000000,,,-1261204177461509641,0.9321842193603516,54.018561058910564,-44.80051564443264,27.302804735723548,5690,4,0.0,7183,426880367647162,13,31.2,248.38673400878906,0.047700002789497375,16,0.0,0.0,1.57542003E9,,,,0,,6,-1.01,1.57542003E9
Raw,686562826,3859502987000000,,,-1261204177461509641,0.9321842193603516,54.018561058910564,-44.80051564443264,27.302804735723548,5690,9,0.0,7183,426880369943750,19,27.9,-276.599365234375,0.06680000573396683,16,0.0,0.0,1.57542003E9,,,,0,,6,-1.01,1.57542003E9
Raw,686562826,3859502987000000,,,-1261204177461509641,0.9321842193603516,54.018561058910564,-44.80051564443264,27.302804735723548,5690,13,0.0,7183,426880356848041,19,27.3,-45.99308395385742,0.06530000269412994,16,0.0,0.0,1.57542003E9,,,,0,,6,-1.01,1.57542003E9
Raw,686562826,3859502987000000,,,-1261204177461509641,0.9321842193603516,54.018561058910564,-44.80051564443264,27.302804735723548,5690,19,0.0,7183,426880357902300,31,23.3,564.66796875,0.6019999980926514,16,0.0,0.0,1.57542003E9,,,,0,,6,-1.01,1.57542003E9
Raw,686562826,3859502987000000,,,-1261204177461509641,0.9321842193603516,54.018561058910564,-44.80051564443264,27.302804735723548,5690,21,0.0,7183,426880358203516,19,27.2,373.2449951171875,0.06830000132322311,16,0.0,0.0,1.57542003E9,,,,0,,6,-1.01,1.57542003E9
Raw,686562826,3859502987000000,,,-1261204177461509641,0.9321842193603516,54.018561058910564,-44.80051564443264,27.302804735723548,5690,26,0.0,7183,426880362246754,24,25.8,-426.249267578125,0.40880000591278076,16,0.0,0.0,1.57542003E9,,,,0,,6,-1.01,1.57542003E9
Raw,686562826,3859502987000000,,,-1261204177461509641,0.9321842193603516,54.018561058910564,-44.80051564443264,27.302804735723548,5690,31,0.0,7183,426880365685401,12,32.2,-254.1886749267578,0.049400001764297485,16,0.0,0.0,1.57542003E9,,,,0,,6,-1.01,1.57542003E9
Fix,gps,37.426914,-122.173296,14.937561,0.000000,3.216000,1581028463000
Raw,686563857,3859503987000000,,,-1261204177461509809,0.9662952423095703,29.94095120811835,-96.5305306681036,13.521027546412483,5690,14,0.0,207,5663371870016,13,31.4,460.655517578125,0.24170000851154327,16,0.0,0.0,1.59806246E9,,,,0,,3,2.22,1.59806246E9
Raw,686563857,3859503987000000,,,-1261204177461509809,0.9662952423095703,29.94095120811835,-96.5305306681036,13.521027546412483,5690,6,0.0,207,5663377664580,35,22.9,-289.6354064941406,1.0119999647140503,16,0.0,0.0,1.59975002E9,,,,0,,3,2.22,1.59975002E9
Raw,686563857,3859503987000000,,,-1261204177461509809,0.9662952423095703,29.94095120811835,-96.5305306681036,13.521027546412483,5690,18,0.0,207,5663370649432,14,30.9,-810.5911254882812,0.24079999327659607,16,0.0,0.0,1.60031245E9,,,,0,,3,2.22,1.60031245E9
Raw,686563857,3859503987000000,,,-1261204177461509809,0.9662952423095703,29.94095120811835,-96.5305306681036,13.521027546412483,5690,16,0.0,207,5663377640723,16,29.6,-362.4215087890625,0.25220000743865967,16,0.0,0.0,1.60143744E9,,,,0,,3,2.22,1.60143744E9
Raw,686563857,3859503987000000,,,-1261204177461509809,0.9662952423095703,29.94095120811835,-96.5305306681036,13.521027546412483,5690,15,0.0,207,5663381248358,192,17.5,149.44711303710938,8.118000030517578,16,0.0,0.0,1.602E9,,,,0,,3,2.22,1.602E9
Raw,686563857,3859503987000000,,,-1261204177461509809,0.9662952423095703,29.94095120811835,-96.5305306681036,13.521027546412483,5690,5,0.0,207,5663379439930,24,25.8,515.0711059570312,0.8149999976158142,16,0.0,0.0,1.60256256E9,,,,0,,3,2.22,1.60256256E9
Raw,686563857,3859503987000000,,,-1261204177461509809,0.9662952423095703,29.94095120811835,-96.5305306681036,13.521027546412483,5690,17,0.0,207,5663376934553,9,35.6,-448.5959167480469,0.24560000002384186,16,0.0,0.0,1.60424998E9,,,,0,,3,2.22,1.60424998E9
Raw,686563857,3859503987000000,,,-1261204177461509809,0.9662952423095703,29.94095120811835,-96.5305306681036,13.521027546412483,5690,4,0.0,207,5663369015255,17,28.3,810.8240356445312,0.2468000054359436,16,0.0,0.0,1.60537498E9,,,,0,,3,2.22,1.60537498E9
Raw,686563858,3859503987000000,,,-1261204177461509809,0.9662952423095703,29.94095120811835,-96.5305306681036,13.521027546412483,5690,1,0.0,15,426881363205688,216,25.7,-510.1107482910156,9.581000328063965,16,0.0,0.0,1.57542003E9,,,,0,,1,-0.87,1.57542003E9
Raw,686563858,3859503987000000,,,-1261204177461509809,0.9662952423095703,29.94095120811835,-96.5305306681036,13.521027546412483,5690,5,0.0,15,426881368144836,6,38.2,302.6977844238281,0.032099999487400055,16,0.0,0.0,1.57542003E9,,,,0,,1,-0.87,1.57542003E9
Raw,686563858,3859503987000000,,,-1261204177461509809,0.9662952423095703,29.94095120811835,-96.5305306681036,13.521027546412483,5690,7,0.0,15,426881378269593,6,39.8,127.02510070800781,0.04660000279545784,16,0.0,0.0,1.57542003E9,,,,0,,1,-0.87,1.57542003E9
Raw,686563858,3859503987000000,,,-1261204177461509809,0.9662952423095703,29.94095120811835,-96.5305306681036,13.521027546412483,5690,8,0.0,15,426881371514482,7,37.2,432.7507019042969,0.03710000216960907,16,0.0,0.0,1.57542003E9,,,,0,,1,-0.87,1.57542003E9
Raw,686563858,3859503987000000,,,-1261204177461509809,0.9662952423095703,29.94095120811835,-96.5305306681036,13.521027546412483,5690,9,0.0,15,426881369790174,11,33.8,664.2223510742188,0.036400001496076584,16,0.0,0.0,1.57542003E9,,,,0,,1,-0.87,1.57542003E9
Raw,686563858,3859503987000000,,,-1261204177461509809,0.9662952423095703,29.94095120811835,-96.5305306681036,13.521027546412483,5690,11,0.0,15,426881370230501,12,32.9,-277.6512451171875,0.03890000283718109,16,0.0,0.0,1.57542003E9,,,,0,,1,-0.87,1.57542003E9
Raw,686563858,3859503987000000,,,-1261204177461509809,0.9662952423095703,29.94095120811835,-96.5305306681036,13.521027546412483,5690,13,0.0,15,426881372060924,12,32.7,-605.394287109375,0.04190000146627426,16,0.0,0.0,1.57542003E9,,,,0,,1,-0.87,1.57542003E9
Raw,686563858,3859503987000000,,,-1261204177461509809,0.9662952423095703,29.94095120811835,-96.5305306681036,13.521027546412483,5690,15,0.0,15,426881363499925,136,14.1,-678.9678344726562,4.480999946594238,16,0.0,0.0,1.57542003E9,,,,0,,1,-0.87,1.57542003E9
Raw,686563858,3859503987000000,,,-1261204177461509809,0.9662952423095703,29.94095120811835,-96.5305306681036,13.521027546412483,5690,17,0.0,15,426881369608217,12,32.8,-702.4305419921875,0.03739999979734421,16,0.0,0.0,1.57542003E9,,,,0,,1,-0.87,1.57542003E9
Raw,686563858,3859503987000000,,,-1261204177461509809,0.9662952423095703,29.94095120811835,-96.5305306681036,13.521027546412483,5690,27,0.0,15,426881362574772,66,21.1,641.3087158203125,3.8495001792907715,16,0.0,0.0,1.57542003E9,,,,0,,1,-0.87,1.57542003E9
Raw,686563858,3859503987000000,,,-1261204177461509809,0.9662952423095703,29.94095120811835,-96.5305306681036,13.521027546412483,5690,28,0.0,15,426881379122396,14,30.5,-208.347900390625,0.05430000275373459,16,0.0,0.0,1.57542003E9,,,,0,,1,-0.87,1.57542003E9
Raw,686563858,3859503987000000,,,-1261204177461509809,0.9662952423095703,29.94095120811835,-96.5305306681036,13.521027546412483,5690,30,0.0,15,426881379896181,16,29.5,-165.2758331298828,0.025200001895427704,16,0.0,0.0,1.57542003E9,,,,0,,1,-0.87,1.57542003E9
Raw,686563858,3859503987000000,,,-1261204177461509809,0.9662952423095703,29.94095120811835,-96.5305306681036,13.521027546412483,5690,1,0.0,7183,426881368514260,21,26.1,129.87986755371094,0.13520000874996185,16,0.0,0.0,1.57542003E9,,,,0,,6,-0.92,1.57542003E9
Raw,686563859,3859503987000000,,,-1261204177461509809,0.9662952423095703,29.94095120811835,-96.5305306681036,13.521027546412483,5690,4,0.0,7183,426881367646327,13,31.9,248.5658721923828,0.047700002789497375,16,0.0,0.0,1.57542003E9,,,,0,,6,-0.92,1.57542003E9
Raw,686563859,3859503987000000,,,-1261204177461509809,0.9662952423095703,29.94095120811835,-96.5305306681036,13.521027546412483,5690,9,0.0,7183,426881369944684,17,28.7,-276.41851806640625,0.058800000697374344,16,0.0,0.0,1.57542003E9,,,,0,,6,-0.92,1.57542003E9
Raw,686563859,3859503987000000,,,-1261204177461509809,0.9662952423095703,29.94095120811835,-96.5305306681036,13.521027546412483,5690,13,0.0,7183,426881356848177,19,27.1,-46.3820915222168,0.06530000269412994,16,0.0,0.0,1.57542003E9,,,,0,,6,-0.92,1.57542003E9
Raw,686563859,3859503987000000,,,-1261204177461509809,0.9662952423095703,29.94095120811835,-96.5305306681036,13.521027546412483,5690,19,0.0,7183,426881357900403,27,24.3,564.7059936523438,0.5519999861717224,16,0.0,0.0,1.57542003E9,,,,0,,6,-0.92,1.57542003E9
Raw,686563859,3859503987000000,,,-1261204177461509809,0.9662952423095703,29.94095120811835,-96.5305306681036,13.521027546412483,5690,21,0.0,7183,426881358202249,17,28.0,373.31756591796875,0.06030000001192093,16,0.0,0.0,1.57542003E9,,,,0,,6,-0.92,1.57542003E9
Raw,686563859,3859503987000000,,,-1261204177461509809,0.9662952423095703,29.94095120811835,-96.5305306681036,13.521027546412483,5690,26,0.0,7183,426881362248209,24,25.0,-426.0389099121094,0.40880000591278076,16,0.0,0.0,1.57542003E9,,,,0,,6,-0.92,1.57542003E9
Raw,686563859,3859503987000000,,,-1261204177461509809,0.9662952423095703,29.94095120811835,-96.5305306681036,13.521027546412483,5690,31,0.0,7183,426881365686258,12,32.2,-254.034423828125,0.049400001764297485,16,0.0,0.0,1.57542003E9,,,,0,,6,-0.92,1.57542003E9
Fix,gps,37.426915,-122.173296,14.238037,0.000000,3.216000,1581028464000
Raw,686564825,3859504987000000,,,-1261204177461509909,0.025829315185546875,27.576781576499343,-96.64778020863108,14.336110354660947,5690,14,0.0,207,5664371868495,13,31.0,459.6668395996094,0.24170000851154327,16,0.0,0.0,1.59806246E9,,,,0,,3,2.3,1.59806246E9
Raw,686564825,3859504987000000,,,-1261204177461509909,0.025829315185546875,27.576781576499343,-96.64778020863108,14.336110354660947,5690,6,0.0,207,5664377665459,31,23.2,-290.8160095214844,0.9519999623298645,16,0.0,0.0,1.59975002E9,,,,0,,3,2.3,1.59975002E9
Raw,686564826,3859504987000000,,,-1261204177461509909,0.025829315185546875,27.576781576499343,-96.64778020863108,14.336110354660947,5690,18,0.0,207,5664370652171,14,30.9,-811.5927124023438,0.24079999327659607,16,0.0,0.0,1.60031245E9,,,,0,,3,2.3,1.60031245E9
Raw,686564826,3859504987000000,,,-1261204177461509909,0.025829315185546875,27.576781576499343,-96.64778020863108,14.336110354660947,5690,16,0.0,207,5664377641948,16,29.6,-363.3855895996094,0.25220000743865967,16,0.0,0.0,1.60143744E9,,,,0,,3,2.3,1.60143744E9
Raw,686564826,3859504987000000,,,-1261204177461509909,0.025829315185546875,27.576781576499343,-96.64778020863108,14.336110354660947,5690,15,0.0,207,5664381247859,247,17.5,149.44711303710938,9.618000030517578,16,0.0,0.0,1.602E9,,,,0,,3,2.3,1.602E9
Raw,686564826,3859504987000000,,,-1261204177461509909,0.025829315185546875,27.576781576499343,-96.64778020863108,14.336110354660947,5690,5,0.0,207,5664379438109,24,25.6,513.998779296875,0.580299973487854,16,0.0,0.0,1.60256256E9,,,,0,,3,2.3,1.60256256E9
Raw,686564826,3859504987000000,,,-1261204177461509909,0.025829315185546875,27.576781576499343,-96.64778020863108,14.336110354660947,5690,17,0.0,207,5664376936065,9,35.3,-449.3900146484375,0.24560000002384186,16,0.0,0.0,1.60424998E9,,,,0,,3,2.3,1.60424998E9
Raw,686564826,3859504987000000,,,-1261204177461509909,0.025829315185546875,27.576781576499343,-96.64778020863108,14.336110354660947,5690,4,0.0,207,5664369012547,17,28.3,809.7692260742188,0.2468000054359436,16,0.0,0.0,1.60537498E9,,,,0,,3,2.3,1.60537498E9
Raw,686564826,3859504987000000,,,-1261204177461509909,0.025829315185546875,27.576781576499343,-96.64778020863108,14.336110354660947,5690,1,0.0,15,426882363207390,283,25.7,-510.1107482910156,11.081000328063965,16,0.0,0.0,1.57542003E9,,,,0,,1,-0.82,1.57542003E9
Raw,686564826,3859504987000000,,,-1261204177461509909,0.025829315185546875,27.576781576499343,-96.64778020863108,14.336110354660947,5690,5,0.0,15,426882368143822,6,38.5,301.7996826171875,0.032099999487400055,16,0.0,0.0,1.57542003E9,,,,0,,1,-0.82,1.57542003E9
Raw,686564827,3859504987000000,,,-1261204177461509909,0.025829315185546875,27.576781576499343,-96.64778020863108,14.336110354660947,5690,7,0.0,15,426882378269178,6,39.5,126.15009307861328,0.04660000279545784,16,0.0,0.0,1.57542003E9,,,,0,,1,-0.82,1.57542003E9
Raw,686564827,3859504987000000,,,-1261204177461509909,0.025829315185546875,27.576781576499343,-96.64778020863108,14.336110354660947,5690,8,0.0,15,426882371513028,7,37.3,431.8749694824219,0.03710000216960907,16,0.0,0.0,1.57542003E9,,,,0,,1,-0.82,1.57542003E9
Raw,686564827,3859504987000000,,,-1261204177461509909,0.025829315185546875,27.576781576499343,-96.64778020863108,14.336110354660947,5690,9,0.0,15,426882369787962,11,33.7,663.31640625,0.036400001496076584,16,0.0,0.0,1.57542003E9,,,,0,,1,-0.82,1.57542003E9
Raw,686564827,3859504987000000,,,-1261204177461509909,0.025829315185546875,27.576781576499343,-96.64778020863108,14.336110354660947,5690,11,0.0,15,426882370231397,12,32.8,-278.53741455078125,0.03890000283718109,16,0.0,0.0,1.57542003E9,,,,0,,1,-0.82,1.57542003E9
Raw,686564828,3859504987000000,,,-1261204177461509909,0.025829315185546875,27.576781576499343,-96.64778020863108,14.336110354660947,5690,13,0.0,15,426882372062935,12,32.9,-606.2822875976562,0.04190000146627426,16,0.0,0.0,1.57542003E9,,,,0,,1,-0.82,1.57542003E9
Raw,686564828,3859504987000000,,,-1261204177461509909,0.025829315185546875,27.576781576499343,-96.64778020863108,14.336110354660947,5690,15,0.0,15,426882363502190,166,14.1,-678.9678344726562,5.9810004234313965,16,0.0,0.0,1.57542003E9,,,,0,,1,-0.82,1.57542003E9
Raw,686564828,3859504987000000,,,-1261204177461509909,0.025829315185546875,27.576781576499343,-96.64778020863108,14.336110354660947,5690,17,0.0,15,426882369610551,11,33.1,-703.4285278320312,0.036400001496076584,16,0.0,0.0,1.57542003E9,,,,0,,1,-0.82,1.57542003E9
Raw,686564828,3859504987000000,,,-1261204177461509909,0.025829315185546875,27.576781576499343,-96.64778020863108,14.336110354660947,5690,27,0.0,15,426882362572652,90,16.3,638.8824462890625,2.759500026702881,16,0.0,0.0,1.57542003E9,,,,0,,1,-0.82,1.57542003E9
Raw,686564828,3859504987000000,,,-1261204177461509909,0.025829315185546875,27.576781576499343,-96.64778020863108,14.336110354660947,5690,28,0.0,15,426882379123092,14,30.8,-209.20655822753906,0.05430000275373459,16,0.0,0.0,1.57542003E9,,,,0,,1,-0.82,1.57542003E9
Raw,686564828,3859504987000000,,,-1261204177461509909,0.025829315185546875,27.576781576499343,-96.64778020863108,14.336110354660947,5690,30,0.0,15,426882379896767,16,29.9,-166.31021118164062,0.025200001895427704,16,0.0,0.0,1.57542003E9,,,,0,,1,-0.82,1.57542003E9
Raw,686564828,3859504987000000,,,-1261204177461509909,0.025829315185546875,27.576781576499343,-96.64778020863108,14.336110354660947,5690,1,0.0,7183,426882368513808,21,26.1,129.2647705078125,0.13520000874996185,16,0.0,0.0,1.57542003E9,,,,0,,6,-0.85,1.57542003E9
Raw,686564828,3859504987000000,,,-1261204177461509909,0.025829315185546875,27.576781576499343,-96.64778020863108,14.336110354660947,5690,4,0.0,7183,426882367645503,13,31.7,247.96385192871094,0.047700002789497375,16,0.0,0.0,1.57542003E9,,,,0,,6,-0.85,1.57542003E9
Raw,686564829,3859504987000000,,,-1261204177461509909,0.025829315185546875,27.576781576499343,-96.64778020863108,14.336110354660947,5690,9,0.0,7183,426882369945596,16,29.3,-277.0433044433594,0.05220000073313713,16,0.0,0.0,1.57542003E9,,,,0,,6,-0.85,1.57542003E9
Raw,686564829,3859504987000000,,,-1261204177461509909,0.025829315185546875,27.576781576499343,-96.64778020863108,14.336110354660947,5690,13,0.0,7183,426882356848343,19,27.4,-46.950138092041016,0.06530000269412994,16,0.0,0.0,1.57542003E9,,,,0,,6,-0.85,1.57542003E9
Raw,686564829,3859504987000000,,,-1261204177461509909,0.025829315185546875,27.576781576499343,-96.64778020863108,14.336110354660947,5690,19,0.0,7183,426882357898501,27,24.9,564.0494995117188,0.5519999861717224,16,0.0,0.0,1.57542003E9,,,,0,,6,-0.85,1.57542003E9
Raw,686564829,3859504987000000,,,-1261204177461509909,0.025829315185546875,27.576781576499343,-96.64778020863108,14.336110354660947,5690,21,0.0,7183,426882358201020,19,27.5,372.6313171386719,0.06830000132322311,16,0.0,0.0,1.57542003E9,,,,0,,6,-0.85,1.57542003E9
Raw,686564829,3859504987000000,,,-1261204177461509909,0.025829315185546875,27.576781576499343,-96.64778020863108,14.336110354660947,5690,26,0.0,7183,426882362249627,24,25.4,-426.8180236816406,0.40880000591278076,16,0.0,0.0,1.57542003E9,,,,0,,6,-0.85,1.57542003E9
Raw,686564829,3859504987000000,,,-1261204177461509909,0.025829315185546875,27.576781576499343,-96.64778020863108,14.336110354660947,5690,31,0.0,7183,426882365687108,12,32.6,-254.69595336914062,0.049400001764297485,16,0.0,0.0,1.57542003E9,,,,0,,6,-0.85,1.57542003E9
Fix,gps,37.426916,-122.173294,13.747131,0.000000,3.216000,1581028465000
Raw,686565827,3859505987000000,,,-1261204177461510011,0.39990997314453125,23.648572096135467,-100.00826566957997,12.373542068090579,5690,14,0.0,207,5665371866958,13,31.1,465.4000244140625,0.24170000851154327,16,0.0,0.0,1.59806246E9,,,,0,,3,2.55,1.59806246E9
Raw,686565827,3859505987000000,,,-1261204177461510011,0.39990997314453125,23.648572096135467,-100.00826566957997,12.373542068090579,5690,6,0.0,207,5665377666456,35,22.7,-285.5407409667969,1.0119999647140503,16,0.0,0.0,1.59975002E9,,,,0,,3,2.55,1.59975002E9
Raw,686565827,3859505987000000,,,-1261204177461510011,0.39990997314453125,23.648572096135467,-100.00826566957997,12.373542068090579,5690,18,0.0,207,5665370654919,13,31.2,-805.8817138671875,0.2401999980211258,16,0.0,0.0,1.60031245E9,,,,0,,3,2.55,1.60031245E9
Raw,686565827,3859505987000000,,,-1261204177461510011,0.39990997314453125,23.648572096135467,-100.00826566957997,12.373542068090579,5690,16,0.0,207,5665377643181,16,29.7,-357.64385986328125,0.25220000743865967,16,0.0,0.0,1.60143744E9,,,,0,,3,2.55,1.60143744E9
Raw,686565827,3859505987000000,,,-1261204177461510011,0.39990997314453125,23.648572096135467,-100.00826566957997,12.373542068090579,5690,15,0.0,207,5665381247361,311,17.5,149.44711303710938,11.118000030517578,16,0.0,0.0,1.602E9,,,,0,,3,2.55,1.602E9
Raw,686565828,3859505987000000,,,-1261204177461510011,0.39990997314453125,23.648572096135467,-100.00826566957997,12.373542068090579,5690,5,0.0,207,5665379436485,24,25.1,519.71044921875,0.8149999976158142,16,0.0,0.0,1.60256256E9,,,,0,,3,2.55,1.60256256E9
Raw,686565828,3859505987000000,,,-1261204177461510011,0.39990997314453125,23.648572096135467,-100.00826566957997,12.373542068090579,5690,17,0.0,207,5665376937561,9,35.0,-443.5860900878906,0.24560000002384186,16,0.0,0.0,1.60424998E9,,,,0,,3,2.55,1.60424998E9
Raw,686565828,3859505987000000,,,-1261204177461510011,0.39990997314453125,23.648572096135467,-100.00826566957997,12.373542068090579,5690,4,0.0,207,5665369009829,17,28.2,815.2730102539062,0.7100000381469727,16,0.0,0.0,1.60537498E9,,,,0,,3,2.55,1.60537498E9
Raw,686565828,3859505987000000,,,-1261204177461510011,0.39990997314453125,23.648572096135467,-100.00826566957997,12.373542068090579,5690,1,0.0,15,426883363209091,360,25.7,-510.1107482910156,12.581000328063965,16,0.0,0.0,1.57542003E9,,,,0,,1,-0.49,1.57542003E9
Raw,686565828,3859505987000000,,,-1261204177461510011,0.39990997314453125,23.648572096135467,-100.00826566957997,12.373542068090579,5690,5,0.0,15,426883368142803,6,38.9,307.5628967285156,0.032099999487400055,16,0.0,0.0,1.57542003E9,,,,0,,1,-0.49,1.57542003E9
Raw,686565828,3859505987000000,,,-1261204177461510011,0.39990997314453125,23.648572096135467,-100.00826566957997,12.373542068090579,5690,7,0.0,15,426883378268755,5,40.1,131.92843627929688,0.046400003135204315,16,0.0,0.0,1.57542003E9,,,,0,,1,-0.49,1.57542003E9
Raw,686565828,3859505987000000,,,-1261204177461510011,0.39990997314453125,23.648572096135467,-100.00826566957997,12.373542068090579,5690,8,0.0,15,426883371511597,7,37.5,437.705810546875,0.03710000216960907,16,0.0,0.0,1.57542003E9,,,,0,,1,-0.49,1.57542003E9
Raw,686565828,3859505987000000,,,-1261204177461510011,0.39990997314453125,23.648572096135467,-100.00826566957997,12.373542068090579,5690,9,0.0,15,426883369785744,11,33.7,669.058349609375,0.036400001496076584,16,0.0,0.0,1.57542003E9,,,,0,,1,-0.49,1.57542003E9
Raw,686565829,3859505987000000,,,-1261204177461510011,0.39990997314453125,23.648572096135467,-100.00826566957997,12.373542068090579,5690,11,0.0,15,426883370232321,12,32.6,-272.7655029296875,0.03890000283718109,16,0.0,0.0,1.57542003E9,,,,0,,1,-0.49,1.57542003E9
Raw,686565829,3859505987000000,,,-1261204177461510011,0.39990997314453125,23.648572096135467,-100.00826566957997,12.373542068090579,5690,13,0.0,15,426883372064938,11,33.4,-600.4981079101562,0.04090000316500664,16,0.0,0.0,1.57542003E9,,,,0,,1,-0.49,1.57542003E9
Raw,686565829,3859505987000000,,,-1261204177461510011,0.39990997314453125,23.648572096135467,-100.00826566957997,12.373542068090579,5690,15,0.0,15,426883363504455,206,14.1,-678.9678344726562,7.4810004234313965,16,0.0,0.0,1.57542003E9,,,,0,,1,-0.49,1.57542003E9
Raw,686565830,3859505987000000,,,-1261204177461510011,0.39990997314453125,23.648572096135467,-100.00826566957997,12.373542068090579,5690,17,0.0,15,426883369612884,11,33.1,-697.6275024414062,0.036400001496076584,16,0.0,0.0,1.57542003E9,,,,0,,1,-0.49,1.57542003E9
Raw,686565830,3859505987000000,,,-1261204177461510011,0.39990997314453125,23.648572096135467,-100.00826566957997,12.373542068090579,5690,27,0.0,15,426883362570495,70,17.9,643.4209594726562,1.0794999599456787,16,0.0,0.0,1.57542003E9,,,,0,,1,-0.49,1.57542003E9
Raw,686565830,3859505987000000,,,-1261204177461510011,0.39990997314453125,23.648572096135467,-100.00826566957997,12.373542068090579,5690,28,0.0,15,426883379123789,14,30.8,-203.39041137695312,0.05430000275373459,16,0.0,0.0,1.57542003E9,,,,0,,1,-0.49,1.57542003E9
Raw,686565830,3859505987000000,,,-1261204177461510011,0.39990997314453125,23.648572096135467,-100.00826566957997,12.373542068090579,5690,30,0.0,15,426883379897272,14,30.0,-161.01699829101562,0.4150000214576721,16,0.0,0.0,1.57542003E9,,,,0,,1,-0.49,1.57542003E9
Raw,686565830,3859505987000000,,,-1261204177461510011,0.39990997314453125,23.648572096135467,-100.00826566957997,12.373542068090579,5690,1,0.0,7183,426883368513375,21,26.1,133.637451171875,0.13520000874996185,16,0.0,0.0,1.57542003E9,,,,0,,6,-0.53,1.57542003E9
Raw,686565830,3859505987000000,,,-1261204177461510011,0.39990997314453125,23.648572096135467,-100.00826566957997,12.373542068090579,5690,4,0.0,7183,426883367644665,12,32.3,252.51075744628906,0.046400003135204315,16,0.0,0.0,1.57542003E9,,,,0,,6,-0.53,1.57542003E9
Raw,686565830,3859505987000000,,,-1261204177461510011,0.39990997314453125,23.648572096135467,-100.00826566957997,12.373542068090579,5690,9,0.0,7183,426883369946511,16,29.6,-272.5058288574219,0.05220000073313713,16,0.0,0.0,1.57542003E9,,,,0,,6,-0.53,1.57542003E9
Raw,686565831,3859505987000000,,,-1261204177461510011,0.39990997314453125,23.648572096135467,-100.00826566957997,12.373542068090579,5690,13,0.0,7183,426883356848491,19,27.6,-42.44487380981445,0.06530000269412994,16,0.0,0.0,1.57542003E9,,,,0,,6,-0.53,1.57542003E9
Raw,686565831,3859505987000000,,,-1261204177461510011,0.39990997314453125,23.648572096135467,-100.00826566957997,12.373542068090579,5690,19,0.0,7183,426883357896631,27,24.4,569.1779174804688,0.5519999861717224,16,0.0,0.0,1.57542003E9,,,,0,,6,-0.53,1.57542003E9
Raw,686565831,3859505987000000,,,-1261204177461510011,0.39990997314453125,23.648572096135467,-100.00826566957997,12.373542068090579,5690,21,0.0,7183,426883358199753,17,28.1,377.0706481933594,0.06030000001192093,16,0.0,0.0,1.57542003E9,,,,0,,6,-0.53,1.57542003E9
Raw,686565831,3859505987000000,,,-1261204177461510011,0.39990997314453125,23.648572096135467,-100.00826566957997,12.373542068090579,5690,26,0.0,7183,426883362251019,24,25.2,-422.31585693359375,0.40880000591278076,16,0.0,0.0,1.57542003E9,,,,0,,6,-0.53,1.57542003E9
Raw,686565831,3859505987000000,,,-1261204177461510011,0.39990997314453125,23.648572096135467,-100.00826566957997,12.373542068090579,5690,31,0.0,7183,426883365687952,12,32.7,-250.29550170898438,0.049400001764297485,16,0.0,0.0,1.57542003E9,,,,0,,6,-0.53,1.57542003E9
Fix,gps,37.426916,-122.173289,12.975342,0.350000,3.216000,1581028466000
Raw,686566866,3859506987000000,,,-1261204177461510111,0.3833160400390625,41.47553408984095,-100.00826566957997,21.162603636252893,5691,14,0.0,207,5666371865353,13,31.8,465.039306640625,0.24170000851154327,16,0.0,0.0,1.59806246E9,,,,0,,3,2.53,1.59806246E9
Raw,686566866,3859506987000000,,,-1261204177461510111,0.3833160400390625,41.47553408984095,-100.00826566957997,21.162603636252893,5691,6,0.0,207,5666377667479,35,22.4,-285.58758544921875,1.0119999647140503,16,0.0,0.0,1.59975002E9,,,,0,,3,2.53,1.59975002E9
Raw,686566866,3859506987000000,,,-1261204177461510111,0.3833160400390625,41.47553408984095,-100.00826566957997,21.162603636252893,5691,18,0.0,207,5666370657592,14,30.9,-806.1302490234375,0.24079999327659607,16,0.0,0.0,1.60031245E9,,,,0,,3,2.53,1.60031245E9
Raw,686566866,3859506987000000,,,-1261204177461510111,0.3833160400390625,41.47553408984095,-100.00826566957997,21.162603636252893,5691,16,0.0,207,5666377644373,16,29.8,-357.9532470703125,0.25220000743865967,16,0.0,0.0,1.60143744E9,,,,0,,3,2.53,1.60143744E9
Raw,686566867,3859506987000000,,,-1261204177461510111,0.3833160400390625,41.47553408984095,-100.00826566957997,21.162603636252893,5691,15,0.0,207,5666381246862,386,17.5,149.44711303710938,12.618000984191895,16,0.0,0.0,1.602E9,,,,0,,3,2.53,1.602E9
Raw,686566867,3859506987000000,,,-1261204177461510111,0.3833160400390625,41.47553408984095,-100.00826566957997,21.162603636252893,5691,5,0.0,207,5666379434795,24,25.2,519.7579345703125,0.580299973487854,16,0.0,0.0,1.60256256E9,,,,0,,3,2.53,1.60256256E9
Raw,686566867,3859506987000000,,,-1261204177461510111,0.3833160400390625,41.47553408984095,-100.00826566957997,21.162603636252893,5691,17,0.0,207,5666376939030,9,35.7,-443.7798767089844,0.24560000002384186,16,0.0,0.0,1.60424998E9,,,,0,,3,2.53,1.60424998E9
Raw,686566867,3859506987000000,,,-1261204177461510111,0.3833160400390625,41.47553408984095,-100.00826566957997,21.162603636252893,5691,4,0.0,207,5666369007114,17,28.5,815.1369018554688,0.2468000054359436,16,0.0,0.0,1.60537498E9,,,,0,,3,2.53,1.60537498E9
Raw,686566867,3859506987000000,,,-1261204177461510111,0.3833160400390625,41.47553408984095,-100.00826566957997,21.162603636252893,5691,1,0.0,15,426884363210793,447,25.7,-510.1107482910156,14.081000328063965,16,0.0,0.0,1.57542003E9,,,,0,,1,-0.54,1.57542003E9
Raw,686566867,3859506987000000,,,-1261204177461510111,0.3833160400390625,41.47553408984095,-100.00826566957997,21.162603636252893,5691,5,0.0,15,426884368141775,6,38.6,307.2775573730469,0.032099999487400055,16,0.0,0.0,1.57542003E9,,,,0,,1,-0.54,1.57542003E9
Raw,686566867,3859506987000000,,,-1261204177461510111,0.3833160400390625,41.47553408984095,-100.00826566957997,21.162603636252893,5691,7,0.0,15,426884378268318,5,40.0,131.64698791503906,0.046400003135204315,16,0.0,0.0,1.57542003E9,,,,0,,1,-0.54,1.57542003E9
Raw,686566867,3859506987000000,,,-1261204177461510111,0.3833160400390625,41.47553408984095,-100.00826566957997,21.162603636252893,5691,8,0.0,15,426884371510120,7,37.8,437.43292236328125,0.03710000216960907,16,0.0,0.0,1.57542003E9,,,,0,,1,-0.54,1.57542003E9
Raw,686566867,3859506987000000,,,-1261204177461510111,0.3833160400390625,41.47553408984095,-100.00826566957997,21.162603636252893,5691,9,0.0,15,426884369783512,11,33.8,668.708984375,0.036400001496076584,16,0.0,0.0,1.57542003E9,,,,0,,1,-0.54,1.57542003E9
Raw,686566867,3859506987000000,,,-1261204177461510111,0.3833160400390625,41.47553408984095,-100.00826566957997,21.162603636252893,5691,11,0.0,15,426884370233223,11,33.1,-273.0035095214844,0.03790000081062317,16,0.0,0.0,1.57542003E9,,,,0,,1,-0.54,1.57542003E9
Raw,686566867,3859506987000000,,,-1261204177461510111,0.3833160400390625,41.47553408984095,-100.00826566957997,21.162603636252893,5691,13,0.0,15,426884372066955,11,33.6,-600.770263671875,0.04090000316500664,16,0.0,0.0,1.57542003E9,,,,0,,1,-0.54,1.57542003E9
Raw,686566867,3859506987000000,,,-1261204177461510111,0.3833160400390625,41.47553408984095,-100.00826566957997,21.162603636252893,5691,15,0.0,15,426884363506632,102,15.3,-678.701416015625,2.8610000610351562,16,0.0,0.0,1.57542003E9,,,,0,,1,-0.54,1.57542003E9
Raw,686566867,3859506987000000,,,-1261204177461510111,0.3833160400390625,41.47553408984095,-100.00826566957997,21.162603636252893,5691,17,0.0,15,426884369615231,11,33.2,-697.9620361328125,0.036400001496076584,16,0.0,0.0,1.57542003E9,,,,0,,1,-0.54,1.57542003E9
Raw,686566867,3859506987000000,,,-1261204177461510111,0.3833160400390625,41.47553408984095,-100.00826566957997,21.162603636252893,5691,27,0.0,15,426884362568249,70,17.6,642.6502685546875,1.0794999599456787,16,0.0,0.0,1.57542003E9,,,,0,,1,-0.54,1.57542003E9
Raw,686566867,3859506987000000,,,-1261204177461510111,0.3833160400390625,41.47553408984095,-100.00826566957997,21.162603636252893,5691,28,0.0,15,426884379124453,14,30.9,-203.68218994140625,0.05430000275373459,16,0.0,0.0,1.57542003E9,,,,0,,1,-0.54,1.57542003E9
Raw,686566868,3859506987000000,,,-1261204177461510111,0.3833160400390625,41.47553408984095,-100.00826566957997,21.162603636252893,5691,30,0.0,15,426884379897830,16,29.9,-160.85240173339844,0.025200001895427704,16,0.0,0.0,1.57542003E9,,,,0,,1,-0.54,1.57542003E9
Raw,686566868,3859506987000000,,,-1261204177461510111,0.3833160400390625,41.47553408984095,-100.00826566957997,21.162603636252893,5691,1,0.0,7183,426884368512922,24,25.4,133.7456512451172,0.4058000147342682,16,0.0,0.0,1.57542003E9,,,,0,,6,-0.57,1.57542003E9
Raw,686566868,3859506987000000,,,-1261204177461510111,0.3833160400390625,41.47553408984095,-100.00826566957997,21.162603636252893,5691,4,0.0,7183,426884367643822,13,31.8,252.61553955078125,0.047700002789497375,16,0.0,0.0,1.57542003E9,,,,0,,6,-0.57,1.57542003E9
Raw,686566868,3859506987000000,,,-1261204177461510111,0.3833160400390625,41.47553408984095,-100.00826566957997,21.162603636252893,5691,9,0.0,7183,426884369947426,16,29.6,-272.3927917480469,0.05220000073313713,16,0.0,0.0,1.57542003E9,,,,0,,6,-0.57,1.57542003E9
Raw,686566868,3859506987000000,,,-1261204177461510111,0.3833160400390625,41.47553408984095,-100.00826566957997,21.162603636252893,5691,13,0.0,7183,426884356848625,19,27.9,-42.32341003417969,0.06530000269412994,16,0.0,0.0,1.57542003E9,,,,0,,6,-0.57,1.57542003E9
Raw,686566868,3859506987000000,,,-1261204177461510111,0.3833160400390625,41.47553408984095,-100.00826566957997,21.162603636252893,5691,19,0.0,7183,426884357894729,27,24.4,568.6355590820312,0.5519999861717224,16,0.0,0.0,1.57542003E9,,,,0,,6,-0.57,1.57542003E9
Raw,686566868,3859506987000000,,,-1261204177461510111,0.3833160400390625,41.47553408984095,-100.00826566957997,21.162603636252893,5691,21,0.0,7183,426884358198498,17,28.3,377.0510559082031,0.06030000001192093,16,0.0,0.0,1.57542003E9,,,,0,,6,-0.57,1.57542003E9
Raw,686566868,3859506987000000,,,-1261204177461510111,0.3833160400390625,41.47553408984095,-100.00826566957997,21.162603636252893,5691,26,0.0,7183,426884362252434,24,25.7,-422.2548828125,0.40880000591278076,16,0.0,0.0,1.57542003E9,,,,0,,6,-0.57,1.57542003E9
Raw,686566868,3859506987000000,,,-1261204177461510111,0.3833160400390625,41.47553408984095,-100.00826566957997,21.162603636252893,5691,31,0.0,7183,426884365688778,12,32.7,-250.16941833496094,0.049400001764297485,16,0.0,0.0,1.57542003E9,,,,0,,6,-0.57,1.57542003E9
Fix,gps,37.426914,-122.173287,13.455688,0.000000,3.216000,1581028467000
Raw,686567828,3859507987000000,,,-1261204177461510164,0.12656593322753906,24.67632293701172,-81.65418585023662,12.011483452453966,5691,14,0.0,207,5667371863831,14,30.3,468.9143981933594,0.24230000376701355,16,0.0,0.0,1.59806246E9,,,,0,,3,2.7,1.59806246E9
Raw,686567829,3859507987000000,,,-1261204177461510164,0.12656593322753906,24.67632293701172,-81.65418585023662,12.011483452453966,5691,6,0.0,207,5667377668401,46,20.3,-280.21856689453125,1.1420000791549683,16,0.0,0.0,1.59975002E9,,,,0,,3,2.7,1.59975002E9
Raw,686567829,3859507987000000,,,-1261204177461510164,0.12656593322753906,24.67632293701172,-81.65418585023662,12.011483452453966,5691,18,0.0,207,5667370660214,16,29.7,-803.2588500976562,0.6714999675750732,16,0.0,0.0,1.60031245E9,,,,0,,3,2.7,1.60031245E9
Raw,686567829,3859507987000000,,,-1261204177461510164,0.12656593322753906,24.67632293701172,-81.65418585023662,12.011483452453966,5691,16,0.0,207,5667377645579,16,29.1,-356.85333251953125,0.25220000743865967,16,0.0,0.0,1.60143744E9,,,,0,,3,2.7,1.60143744E9
Raw,686567829,3859507987000000,,,-1261204177461510164,0.12656593322753906,24.67632293701172,-81.65418585023662,12.011483452453966,5691,15,0.0,207,5667381246364,471,17.5,149.44711303710938,14.118000984191895,16,0.0,0.0,1.602E9,,,,0,,3,2.7,1.602E9
Raw,686567829,3859507987000000,,,-1261204177461510164,0.12656593322753906,24.67632293701172,-81.65418585023662,12.011483452453966,5691,5,0.0,207,5667379433029,27,24.7,523.1712646484375,0.8649999499320984,16,0.0,0.0,1.60256256E9,,,,0,,3,2.7,1.60256256E9
Raw,686567829,3859507987000000,,,-1261204177461510164,0.12656593322753906,24.67632293701172,-81.65418585023662,12.011483452453966,5691,17,0.0,207,5667376940499,11,33.8,-439.8462219238281,0.24690000712871552,16,0.0,0.0,1.60424998E9,,,,0,,3,2.7,1.60424998E9
Raw,686567829,3859507987000000,,,-1261204177461510164,0.12656593322753906,24.67632293701172,-81.65418585023662,12.011483452453966,5691,4,0.0,207,5667369004381,21,26.5,817.822021484375,0.7900000214576721,16,0.0,0.0,1.60537498E9,,,,0,,3,2.7,1.60537498E9
Raw,686567829,3859507987000000,,,-1261204177461510164,0.12656593322753906,24.67632293701172,-81.65418585023662,12.011483452453966,5691,1,0.0,15,426885363212495,544,25.7,-510.1107482910156,15.581000328063965,16,0.0,0.0,1.57542003E9,,,,0,,1,-0.33,1.57542003E9
Raw,686567830,3859507987000000,,,-1261204177461510164,0.12656593322753906,24.67632293701172,-81.65418585023662,12.011483452453966,5691,5,0.0,15,426885368140747,7,37.6,311.20770263671875,0.032600000500679016,16,0.0,0.0,1.57542003E9,,,,0,,1,-0.33,1.57542003E9
Raw,686567830,3859507987000000,,,-1261204177461510164,0.12656593322753906,24.67632293701172,-81.65418585023662,12.011483452453966,5691,7,0.0,15,426885378267865,6,38.6,135.4742889404297,0.0471000038087368,16,0.0,0.0,1.57542003E9,,,,0,,1,-0.33,1.57542003E9
Raw,686567830,3859507987000000,,,-1261204177461510164,0.12656593322753906,24.67632293701172,-81.65418585023662,12.011483452453966,5691,8,0.0,15,426885371508665,8,36.1,441.3414306640625,0.037700001150369644,16,0.0,0.0,1.57542003E9,,,,0,,1,-0.33,1.57542003E9
Raw,686567830,3859507987000000,,,-1261204177461510164,0.12656593322753906,24.67632293701172,-81.65418585023662,12.011483452453966,5691,9,0.0,15,426885369781272,12,32.6,672.5841064453125,0.03739999979734421,16,0.0,0.0,1.57542003E9,,,,0,,1,-0.33,1.57542003E9
Raw,686567830,3859507987000000,,,-1261204177461510164,0.12656593322753906,24.67632293701172,-81.65418585023662,12.011483452453966,5691,11,0.0,15,426885370234152,13,31.0,-269.0668029785156,0.04020000249147415,16,0.0,0.0,1.57542003E9,,,,0,,1,-0.33,1.57542003E9
Raw,686567830,3859507987000000,,,-1261204177461510164,0.12656593322753906,24.67632293701172,-81.65418585023662,12.011483452453966,5691,13,0.0,15,426885372068955,12,32.4,-596.90771484375,0.04190000146627426,16,0.0,0.0,1.57542003E9,,,,0,,1,-0.33,1.57542003E9
Raw,686567830,3859507987000000,,,-1261204177461510164,0.12656593322753906,24.67632293701172,-81.65418585023662,12.011483452453966,5691,15,0.0,15,426885363508896,122,15.3,-678.701416015625,4.361000061035156,16,0.0,0.0,1.57542003E9,,,,0,,1,-0.33,1.57542003E9
Raw,686567830,3859507987000000,,,-1261204177461510164,0.12656593322753906,24.67632293701172,-81.65418585023662,12.011483452453966,5691,17,0.0,15,426885369617559,13,31.8,-694.8097534179688,0.3799999952316284,16,0.0,0.0,1.57542003E9,,,,0,,1,-0.33,1.57542003E9
Raw,686567831,3859507987000000,,,-1261204177461510164,0.12656593322753906,24.67632293701172,-81.65418585023662,12.011483452453966,5691,27,0.0,15,426885362566105,79,17.6,642.6502685546875,2.5794999599456787,16,0.0,0.0,1.57542003E9,,,,0,,1,-0.33,1.57542003E9
Raw,686567831,3859507987000000,,,-1261204177461510164,0.12656593322753906,24.67632293701172,-81.65418585023662,12.011483452453966,5691,28,0.0,15,426885379125126,16,29.8,-199.81643676757812,0.0552000030875206,16,0.0,0.0,1.57542003E9,,,,0,,1,-0.33,1.57542003E9
Raw,686567831,3859507987000000,,,-1261204177461510164,0.12656593322753906,24.67632293701172,-81.65418585023662,12.011483452453966,5691,30,0.0,15,426885379898365,19,27.8,-157.89617919921875,0.4950000047683716,16,0.0,0.0,1.57542003E9,,,,0,,1,-0.33,1.57542003E9
Raw,686567831,3859507987000000,,,-1261204177461510164,0.12656593322753906,24.67632293701172,-81.65418585023662,12.011483452453966,5691,1,0.0,7183,426885368512477,24,25.6,136.70562744140625,0.4058000147342682,16,0.0,0.0,1.57542003E9,,,,0,,6,-0.34,1.57542003E9
Raw,686567831,3859507987000000,,,-1261204177461510164,0.12656593322753906,24.67632293701172,-81.65418585023662,12.011483452453966,5691,4,0.0,7183,426885367642984,13,31.1,255.63623046875,0.047700002789497375,16,0.0,0.0,1.57542003E9,,,,0,,6,-0.34,1.57542003E9
Raw,686567832,3859507987000000,,,-1261204177461510164,0.12656593322753906,24.67632293701172,-81.65418585023662,12.011483452453966,5691,9,0.0,7183,426885369948325,17,28.9,-269.3848571777344,0.058800000697374344,16,0.0,0.0,1.57542003E9,,,,0,,6,-0.34,1.57542003E9
Raw,686567832,3859507987000000,,,-1261204177461510164,0.12656593322753906,24.67632293701172,-81.65418585023662,12.011483452453966,5691,13,0.0,7183,426885356848763,24,25.8,-39.33378601074219,0.4058000147342682,16,0.0,0.0,1.57542003E9,,,,0,,6,-0.34,1.57542003E9
Raw,686567832,3859507987000000,,,-1261204177461510164,0.12656593322753906,24.67632293701172,-81.65418585023662,12.011483452453966,5691,19,0.0,7183,426885357892831,31,23.8,571.1664428710938,0.6019999980926514,16,0.0,0.0,1.57542003E9,,,,0,,6,-0.34,1.57542003E9
Raw,686567832,3859507987000000,,,-1261204177461510164,0.12656593322753906,24.67632293701172,-81.65418585023662,12.011483452453966,5691,21,0.0,7183,426885358197245,19,27.2,380.0535583496094,0.06830000132322311,16,0.0,0.0,1.57542003E9,,,,0,,6,-0.34,1.57542003E9
Raw,686567832,3859507987000000,,,-1261204177461510164,0.12656593322753906,24.67632293701172,-81.65418585023662,12.011483452453966,5691,26,0.0,7183,426885362253851,27,24.5,-418.6651306152344,0.5534999966621399,16,0.0,0.0,1.57542003E9,,,,0,,6,-0.34,1.57542003E9
Raw,686567832,3859507987000000,,,-1261204177461510164,0.12656593322753906,24.67632293701172,-81.65418585023662,12.011483452453966,5691,31,0.0,7183,426885365689613,12,32.0,-247.2544708251953,0.049400001764297485,16,0.0,0.0,1.57542003E9,,,,0,,6,-0.34,1.57542003E9
Fix,gps,37.426909,-122.173287,13.160522,0.000000,3.216000,1581028468000
Raw,686568844,3859509205000000,,,-1261204177461311872,-0.005462646484375,596.1052374914289,-62.8430179637352,13.250997795474841,5692,14,0.0,207,5668589663612,12,32.5,475.18255615234375,0.26200002431869507,16,0.0,0.0,1.59806246E9,,,,0,,3,0.0,1.59806246E9
Raw,686568844,3859509205000000,,,-1261204177461311872,-0.005462646484375,596.1052374914289,-62.8430179637352,13.250997795474841,5692,6,0.0,207,5668595471268,35,22.8,-273.7064514160156,0.9939999580383301,16,0.0,0.0,1.59975002E9,,,,0,,3,0.0,1.59975002E9
Raw,686568844,3859509205000000,,,-1261204177461311872,-0.005462646484375,596.1052374914289,-62.8430179637352,13.250997795474841,5692,18,0.0,207,5668588465213,12,32.0,-796.1435546875,0.2905000150203705,16,0.0,0.0,1.60031245E9,,,,0,,3,0.0,1.60031245E9
