# 
# Header Description:
# 
# Version: v2.0.0.1 Platform: 10 Manufacturer: Google Model: Pixel 3
# 
# Raw,ElapsedRealtimeMillis,TimeNanos,LeapSecond,TimeUncertaintyNanos,FullBiasNanos,BiasNanos,BiasUncertaintyNanos,DriftNanosPerSecond,DriftUncertaintyNanosPerSecond,HardwareClockDiscontinuityCount,Svid,TimeOffsetNanos,State,ReceivedSvTimeNanos,ReceivedSvTimeUncertaintyNanos,Cn0DbHz,PseudorangeRateMetersPerSecond,PseudorangeRateUncertaintyMetersPerSecond,AccumulatedDeltaRangeState,AccumulatedDeltaRangeMeters,AccumulatedDeltaRangeUncertaintyMeters,CarrierFrequencyHz,CarrierCycles,CarrierPhase,CarrierPhaseUncertainty,MultipathIndicator,SnrInDb,ConstellationType,AgcDb,CarrierFrequencyHz
# 
# Fix,Provider,Latitude,Longitude,Altitude,Speed,Accuracy,(UTC)TimeInMs
# 
# Nav,Svid,Type,Status,MessageId,Sub-messageId,Data(Bytes)
# 
Raw,677093817,3850034094000000,,,-1261204177561343196,-0.27285003662109375,1001.1623380705714,10.704531059771899,7.970788101463881,5350,14,0.0,207,82593590843333,21,26.8,107.89787292480469,0.4657000005245209,16,0.0,0.0,1.59806246E9,,,,0,,3,0.0,1.59806246E9
Raw,677093817,3850034094000000,,,-1261204177561343196,-0.27285003662109375,1001.1623380705714,10.704531059771899,7.970788101463881,5350,13,0.0,207,82593582837378,19,27.4,644.9942016601562,0.39670002460479736,16,0.0,0.0,1.60087501E9,,,,0,,3,0.0,1.60087501E9
Raw,677093817,3850034094000000,,,-1261204177561343196,-0.27285003662109375,1001.1623380705714,10.704531059771899,7.970788101463881,5350,15,0.0,207,82593584074853,14,30.2,-501.5780944824219,0.2994999885559082,16,0.0,0.0,1.602E9,,,,0,,3,0.0,1.602E9
Raw,677093817,3850034094000000,,,-1261204177561343196,-0.27285003662109375,1001.1623380705714,10.704531059771899,7.970788101463881,5350,5,0.0,207,82593580978059,6,38.4,-717.63623046875,0.2549000084400177,16,0.0,0.0,1.60256256E9,,,,0,,3,0.0,1.60256256E9
Raw,677093817,3850034094000000,,,-1261204177561343196,-0.27285003662109375,1001.1623380705714,10.704531059771899,7.970788101463881,5350,3,0.0,207,82593586655586,19,27.7,581.003662109375,0.372700035572052,16,0.0,0.0,1.60481254E9,,,,0,,3,0.0,1.60481254E9
Raw,677093817,3850034094000000,,,-1261204177561343196,-0.27285003662109375,1001.1623380705714,10.704531059771899,7.970788101463881,5350,4,0.0,207,82593591113187,11,33.5,-148.06591796875,0.2597000002861023,16,0.0,0.0,1.60537498E9,,,,0,,3,0.0,1.60537498E9
Raw,677093817,3850034094000000,,,-1261204177561343196,-0.27285003662109375,1001.1623380705714,10.704531059771899,7.970788101463881,5350,4,0.0,15,417411585094963,11,33.2,295.4681396484375,0.050700001418590546,16,0.0,0.0,1.57542003E9,,,,0,,1,0.0,1.57542003E9
Raw,677093817,3850034094000000,,,-1261204177561343196,-0.27285003662109375,1001.1623380705714,10.704531059771899,7.970788101463881,5350,7,0.0,15,417411583225547,8,36.7,-239.99693298339844,0.06499999761581421,16,0.0,0.0,1.57542003E9,,,,0,,1,0.0,1.57542003E9
Raw,677093817,3850034094000000,,,-1261204177561343196,-0.27285003662109375,1001.1623380705714,10.704531059771899,7.970788101463881,5350,8,0.0,15,417411576061203,17,28.1,-501.0168762207031,0.12139999866485596,16,0.0,0.0,1.57542003E9,,,,0,,1,0.0,1.57542003E9
Raw,677093817,3850034094000000,,,-1261204177561343196,-0.27285003662109375,1001.1623380705714,10.704531059771899,7.970788101463881,5350,9,0.0,15,417411587712984,6,39.4,-67.55854034423828,0.03240000084042549,16,0.0,0.0,1.57542003E9,,,,0,,1,0.0,1.57542003E9
Raw,677093818,3850034094000000,,,-1261204177561343196,-0.27285003662109375,1001.1623380705714,10.704531059771899,7.970788101463881,5350,16,0.0,15,417411579647347,11,33.5,583.0123901367188,0.07170000672340393,16,0.0,0.0,1.57542003E9,,,,0,,1,0.0,1.57542003E9
Raw,677093818,3850034094000000,,,-1261204177561343196,-0.27285003662109375,1001.1623380705714,10.704531059771899,7.970788101463881,5350,23,0.0,15,417411586100211,9,35.8,188.48318481445312,0.04349999874830246,16,0.0,0.0,1.57542003E9,,,,0,,1,0.0,1.57542003E9
Raw,677093818,3850034094000000,,,-1261204177561343196,-0.27285003662109375,1001.1623380705714,10.704531059771899,7.970788101463881,5350,27,0.0,15,417411576896299,21,26.0,-287.89434814453125,0.27470001578330994,16,0.0,0.0,1.57542003E9,,,,0,,1,0.0,1.57542003E9
Raw,677093818,3850034094000000,,,-1261204177561343196,-0.27285003662109375,1001.1623380705714,10.704531059771899,7.970788101463881,5350,30,0.0,15,417411576500051,17,28.8,-467.40045166015625,0.12139999866485596,16,0.0,0.0,1.57542003E9,,,,0,,1,0.0,1.57542003E9
Raw,677093818,3850034094000000,,,-1261204177561343196,-0.27285003662109375,1001.1623380705714,10.704531059771899,7.970788101463881,5350,4,0.0,7183,417411571376768,16,29.8,-384.0982666015625,0.38600000739097595,16,0.0,0.0,1.57542003E9,,,,0,,6,0.0,1.57542003E9
Raw,677093818,3850034094000000,,,-1261204177561343196,-0.27285003662109375,1001.1623380705714,10.704531059771899,7.970788101463881,5350,19,0.0,7183,417411577480497,17,28.1,120.91260528564453,0.40299999713897705,16,0.0,0.0,1.57542003E9,,,,0,,6,0.0,1.57542003E9
Raw,677093818,3850034094000000,,,-1261204177561343196,-0.27285003662109375,1001.1623380705714,10.704531059771899,7.970788101463881,5350,21,0.0,7183,417411576144881,10,34.0,196.71607971191406,0.26750001311302185,16,0.0,0.0,1.57542003E9,,,,0,,6,0.0,1.57542003E9
Fix,gps,37.425894,-122.171196,2.434448,0.000000,3.216000,1581018994000
Fix,gps,37.425892,-122.171196,2.319275,0.000000,3.216000,1581018995000
Raw,677094834,3850035108000000,,,-1261204177561039137,-0.21814751625061035,1001.4391737058759,29.59898769722223,9.032310306312622,5351,14,0.0,207,82594604539085,13,31.0,109.24673461914062,0.29109999537467957,16,0.0,0.0,1.59806246E9,,,,0,,3,0.0,1.59806246E9
Raw,677094835,3850035108000000,,,-1261204177561039137,-0.21814751625061035,1001.4391737058759,29.59898769722223,9.032310306312622,5351,13,0.0,207,82594596531127,21,26.8,646.1587524414062,0.474700003862381,16,0.0,0.0,1.60087501E9,,,,0,,3,0.0,1.60087501E9
Raw,677094835,3850035108000000,,,-1261204177561039137,-0.21814751625061035,1001.4391737058759,29.59898769722223,9.032310306312622,5351,15,0.0,207,82594597772477,16,29.4,-500.05267333984375,0.29989999532699585,16,0.0,0.0,1.602E9,,,,0,,3,0.0,1.602E9
Raw,677094835,3850035108000000,,,-1261204177561039137,-0.21814751625061035,1001.4391737058759,29.59898769722223,9.032310306312622,5351,5,0.0,207,82594594676482,6,38.5,-716.24462890625,0.2459000051021576,16,0.0,0.0,1.60256256E9,,,,0,,3,0.0,1.60256256E9
Raw,677094835,3850035108000000,,,-1261204177561039137,-0.21814751625061035,1001.4391737058759,29.59898769722223,9.032310306312622,5351,3,0.0,207,82594600349624,17,28.3,582.3189086914062,0.32739999890327454,16,0.0,0.0,1.60481254E9,,,,0,,3,0.0,1.60481254E9
Raw,677094836,3850035108000000,,,-1261204177561039137,-0.21814751625061035,1001.4391737058759,29.59898769722223,9.032310306312622,5351,4,0.0,207,82594604809706,13,31.6,-146.62525939941406,0.29109999537467957,16,0.0,0.0,1.60537498E9,,,,0,,3,0.0,1.60537498E9
Raw,677094836,3850035108000000,,,-1261204177561039137,-0.21814751625061035,1001.4391737058759,29.59898769722223,9.032310306312622,5351,4,0.0,15,417412598789958,12,32.8,296.78192138671875,0.0754999965429306,16,0.0,0.0,1.57542003E9,,,,0,,1,0.0,1.57542003E9
Raw,677094836,3850035108000000,,,-1261204177561039137,-0.21814751625061035,1001.4391737058759,29.59898769722223,9.032310306312622,5351,7,0.0,15,417412596922364,7,37.5,-238.55494689941406,0.051500000059604645,16,0.0,0.0,1.57542003E9,,,,0,,1,0.0,1.57542003E9
Raw,677094836,3850035108000000,,,-1261204177561039137,-0.21814751625061035,1001.4391737058759,29.59898769722223,9.032310306312622,5351,8,0.0,15,417412589758801,24,25.8,-499.7287292480469,1.1740000247955322,16,0.0,0.0,1.57542003E9,,,,0,,1,0.0,1.57542003E9
Raw,677094836,3850035108000000,,,-1261204177561039137,-0.21814751625061035,1001.4391737058759,29.59898769722223,9.032310306312622,5351,9,0.0,15,417412601409182,5,40.4,-66.1936264038086,0.05140000209212303,16,0.0,0.0,1.57542003E9,,,,0,,1,0.0,1.57542003E9
Raw,677094837,3850035108000000,,,-1261204177561039137,-0.21814751625061035,1001.4391737058759,29.59898769722223,9.032310306312622,5351,16,0.0,15,417412593341352,13,31.7,584.3568115234375,0.07459999620914459,16,0.0,0.0,1.57542003E9,,,,0,,1,0.0,1.57542003E9
Raw,677094837,3850035108000000,,,-1261204177561039137,-0.21814751625061035,1001.4391737058759,29.59898769722223,9.032310306312622,5351,23,0.0,15,417412599795560,9,35.5,189.84954833984375,0.06300000101327896,16,0.0,0.0,1.57542003E9,,,,0,,1,0.0,1.57542003E9
Raw,677094837,3850035108000000,,,-1261204177561039137,-0.21814751625061035,1001.4391737058759,29.59898769722223,9.032310306312622,5351,27,0.0,15,417412590593390,27,24.2,-287.248291015625,0.6664999723434448,16,0.0,0.0,1.57542003E9,,,,0,,1,0.0,1.57542003E9
Raw,677094838,3850035108000000,,,-1261204177561039137,-0.21814751625061035,1001.4391737058759,29.59898769722223,9.032310306312622,5351,30,0.0,15,417412590197668,16,29.1,-465.90374755859375,0.08940000087022781,16,0.0,0.0,1.57542003E9,,,,0,,1,0.0,1.57542003E9
Raw,677094838,3850035108000000,,,-1261204177561039137,-0.21814751625061035,1001.4391737058759,29.59898769722223,9.032310306312622,5351,4,0.0,7183,417412585074063,17,28.3,-382.7186279296875,0.4090000092983246,16,0.0,0.0,1.57542003E9,,,,0,,6,0.0,1.57542003E9
Raw,677094838,3850035108000000,,,-1261204177561039137,-0.21814751625061035,1001.4391737058759,29.59898769722223,9.032310306312622,5351,19,0.0,7183,417412591176116,16,29.0,120.67141723632812,0.10889999568462372,16,0.0,0.0,1.57542003E9,,,,0,,6,0.0,1.57542003E9
Raw,677094838,3850035108000000,,,-1261204177561039137,-0.21814751625061035,1001.4391737058759,29.59898769722223,9.032310306312622,5351,21,0.0,7183,417412589840184,10,34.3,198.34934997558594,0.07609999924898148,16,0.0,0.0,1.57542003E9,,,,0,,6,0.0,1.57542003E9
Raw,677095830,3850036100000000,,,-1261204177560902758,0.020070552825927734,1001.5587322413921,34.33526408643921,10.161705578313114,5352,14,0.0,207,82595596402318,9,35.8,113.01959991455078,0.25850000977516174,16,0.0,0.0,1.59806246E9,,,,0,,3,0.0,1.59806246E9
Raw,677095830,3850036100000000,,,-1261204177560902758,0.020070552825927734,1001.5587322413921,34.33526408643921,10.161705578313114,5352,13,0.0,207,82595588392554,19,27.3,649.926025390625,0.3757000267505646,16,0.0,0.0,1.60087501E9,,,,0,,3,0.0,1.60087501E9
Raw,677095830,3850036100000000,,,-1261204177560902758,0.020070552825927734,1001.5587322413921,34.33526408643921,10.161705578313114,5352,15,0.0,207,82595589638004,17,28.0,-496.2183837890625,0.3109000027179718,16,0.0,0.0,1.602E9,,,,0,,3,0.0,1.602E9
Raw,677095831,3850036100000000,,,-1261204177560902758,0.020070552825927734,1001.5587322413921,34.33526408643921,10.161705578313114,5352,5,0.0,207,82595586542446,6,38.3,-712.4978637695312,0.23389999568462372,16,0.0,0.0,1.60256256E9,,,,0,,3,0.0,1.60256256E9
Raw,677095831,3850036100000000,,,-1261204177560902758,0.020070552825927734,1001.5587322413921,34.33526408643921,10.161705578313114,5352,3,0.0,207,82595592211238,14,30.6,586.2083740234375,0.281499981880188,16,0.0,0.0,1.60481254E9,,,,0,,3,0.0,1.60481254E9
Raw,677095831,3850036100000000,,,-1261204177560902758,0.020070552825927734,1001.5587322413921,34.33526408643921,10.161705578313114,5352,4,0.0,207,82595596673635,16,29.8,-142.84933471679688,0.29839998483657837,16,0.0,0.0,1.60537498E9,,,,0,,3,0.0,1.60537498E9
Raw,677095831,3850036100000000,,,-1261204177560902758,0.020070552825927734,1001.5587322413921,34.33526408643921,10.161705578313114,5352,4,0.0,15,417413590652520,11,33.6,300.6156005859375,0.05820000171661377,16,0.0,0.0,1.57542003E9,,,,0,,1,0.0,1.57542003E9
Raw,677095831,3850036100000000,,,-1261204177560902758,0.020070552825927734,1001.5587322413921,34.33526408643921,10.161705578313114,5352,7,0.0,15,417413588786722,7,37.7,-234.83885192871094,0.039500001817941666,16,0.0,0.0,1.57542003E9,,,,0,,1,0.0,1.57542003E9
Raw,677095832,3850036100000000,,,-1261204177560902758,0.020070552825927734,1001.5587322413921,34.33526408643921,10.161705578313114,5352,8,0.0,15,417413581624009,17,28.0,-495.82928466796875,0.12890000641345978,16,0.0,0.0,1.57542003E9,,,,0,,1,0.0,1.57542003E9
Raw,677095832,3850036100000000,,,-1261204177560902758,0.020070552825927734,1001.5587322413921,34.33526408643921,10.161705578313114,5352,9,0.0,15,417413593272982,5,40.4,-62.430599212646484,0.039400000125169754,16,0.0,0.0,1.57542003E9,,,,0,,1,0.0,1.57542003E9
Raw,677095832,3850036100000000,,,-1261204177560902758,0.020070552825927734,1001.5587322413921,34.33526408643921,10.161705578313114,5352,16,0.0,15,417413585203030,12,32.3,588.2233276367188,0.0860000029206276,16,0.0,0.0,1.57542003E9,,,,0,,1,0.0,1.57542003E9
Raw,677095832,3850036100000000,,,-1261204177560902758,0.020070552825927734,1001.5587322413921,34.33526408643921,10.161705578313114,5352,23,0.0,15,417413591658522,8,36.0,193.54873657226562,0.04699999839067459,16,0.0,0.0,1.57542003E9,,,,0,,1,0.0,1.57542003E9
Raw,677095832,3850036100000000,,,-1261204177560902758,0.020070552825927734,1001.5587322413921,34.33526408643921,10.161705578313114,5352,30,0.0,15,417413582062758,17,28.7,-462.27972412109375,0.13040000200271606,16,0.0,0.0,1.57542003E9,,,,0,,1,0.0,1.57542003E9
Raw,677095832,3850036100000000,,,-1261204177560902758,0.020070552825927734,1001.5587322413921,34.33526408643921,10.161705578313114,5352,1,0.0,7183,417413579550656,19,27.1,-302.3385925292969,0.4360000193119049,16,0.0,0.0,1.57542003E9,,,,0,,6,0.0,1.57542003E9
Raw,677095833,3850036100000000,,,-1261204177560902758,0.020070552825927734,1001.5587322413921,34.33526408643921,10.161705578313114,5352,4,0.0,7183,417413576938892,17,28.9,-379.6453857421875,0.4074999988079071,16,0.0,0.0,1.57542003E9,,,,0,,6,0.0,1.57542003E9
Raw,677095833,3850036100000000,,,-1261204177560902758,0.020070552825927734,1001.5587322413921,34.33526408643921,10.161705578313114,5352,19,0.0,7183,417413583039302,17,28.2,126.39305877685547,0.406000018119812,16,0.0,0.0,1.57542003E9,,,,0,,6,0.0,1.57542003E9
Raw,677095833,3850036100000000,,,-1261204177560902758,0.020070552825927734,1001.5587322413921,34.33526408643921,10.161705578313114,5352,21,0.0,7183,417413581703111,9,35.2,199.89053344726562,0.07200000435113907,16,0.0,0.0,1.57542003E9,,,,0,,6,0.0,1.57542003E9
Fix,gps,37.425892,-122.171197,2.289612,0.000000,3.216000,1581018996000
Fix,gps,37.425892,-122.171197,2.517700,0.000000,3.216000,1581018997000
Raw,677096838,3850037091000000,,,-1261204177560168464,-0.5563364028930664,1001.585740596056,47.109022245846774,10.93952639478317,5353,14,0.0,207,82596586667698,10,34.6,109.56088256835938,0.2476000040769577,16,0.0,0.0,1.59806246E9,,,,0,,3,0.0,1.59806246E9
Raw,677096839,3850037091000000,,,-1261204177560168464,-0.5563364028930664,1001.585740596056,47.109022245846774,10.93952639478317,5353,13,0.0,207,82596578656252,21,26.9,646.304443359375,0.47769999504089355,16,0.0,0.0,1.60087501E9,,,,0,,3,0.0,1.60087501E9
Raw,677096839,3850037091000000,,,-1261204177560168464,-0.5563364028930664,1001.585740596056,47.109022245846774,10.93952639478317,5353,15,0.0,207,82596579905075,27,24.5,-499.68218994140625,0.8799999952316284,16,0.0,0.0,1.602E9,,,,0,,3,0.0,1.602E9
Raw,677096839,3850037091000000,,,-1261204177560168464,-0.5563364028930664,1001.585740596056,47.109022245846774,10.93952639478317,5353,5,0.0,207,82596576810543,8,36.9,-716.0867309570312,0.25450000166893005,16,0.0,0.0,1.60256256E9,,,,0,,3,0.0,1.60256256E9
Raw,677096839,3850037091000000,,,-1261204177560168464,-0.5563364028930664,1001.585740596056,47.109022245846774,10.93952639478317,5353,3,0.0,207,82596582475025,16,29.2,582.5721435546875,0.3073999881744385,16,0.0,0.0,1.60481254E9,,,,0,,3,0.0,1.60481254E9
Raw,677096840,3850037091000000,,,-1261204177560168464,-0.5563364028930664,1001.585740596056,47.109022245846774,10.93952639478317,5353,4,0.0,207,82596586939945,16,29.8,-146.3040008544922,0.2833999991416931,16,0.0,0.0,1.60537498E9,,,,0,,3,0.0,1.60537498E9
Raw,677096840,3850037091000000,,,-1261204177560168464,-0.5563364028930664,1001.585740596056,47.109022245846774,10.93952639478317,5353,4,0.0,15,417414580917305,12,32.7,297.1079406738281,0.07850000262260437,16,0.0,0.0,1.57542003E9,,,,0,,1,0.0,1.57542003E9
Raw,677096840,3850037091000000,,,-1261204177560168464,-0.5563364028930664,1001.585740596056,47.109022245846774,10.93952639478317,5353,7,0.0,15,417414579053291,6,38.9,-238.3604736328125,0.05340000241994858,16,0.0,0.0,1.57542003E9,,,,0,,1,0.0,1.57542003E9
Raw,677096840,3850037091000000,,,-1261204177560168464,-0.5563364028930664,1001.585740596056,47.109022245846774,10.93952639478317,5353,8,0.0,15,417414571891455,14,30.3,-499.4700927734375,0.07999999821186066,16,0.0,0.0,1.57542003E9,,,,0,,1,0.0,1.57542003E9
Raw,677096841,3850037091000000,,,-1261204177560168464,-0.5563364028930664,1001.585740596056,47.109022245846774,10.93952639478317,5353,9,0.0,15,417414583538983,6,38.5,-65.88426208496094,0.05939999967813492,16,0.0,0.0,1.57542003E9,,,,0,,1,0.0,1.57542003E9
Raw,677096841,3850037091000000,,,-1261204177560168464,-0.5563364028930664,1001.585740596056,47.109022245846774,10.93952639478317,5353,16,0.0,15,417414575466845,11,33.3,584.697509765625,0.065700002014637,16,0.0,0.0,1.57542003E9,,,,0,,1,0.0,1.57542003E9
Raw,677096842,3850037091000000,,,-1261204177560168464,-0.5563364028930664,1001.585740596056,47.109022245846774,10.93952639478317,5353,23,0.0,15,417414581923689,10,34.0,190.19729614257812,0.07010000199079514,16,0.0,0.0,1.57542003E9,,,,0,,1,0.0,1.57542003E9
Raw,677096842,3850037091000000,,,-1261204177560168464,-0.5563364028930664,1001.585740596056,47.109022245846774,10.93952639478317,5353,27,0.0,15,417414572724556,17,28.9,-286.053466796875,0.11540000140666962,16,0.0,0.0,1.57542003E9,,,,0,,1,0.0,1.57542003E9
Raw,677096842,3850037091000000,,,-1261204177560168464,-0.5563364028930664,1001.585740596056,47.109022245846774,10.93952639478317,5353,30,0.0,15,417414572330033,19,27.3,-466.0023498535156,0.18170000612735748,16,0.0,0.0,1.57542003E9,,,,0,,1,0.0,1.57542003E9
Raw,677096842,3850037091000000,,,-1261204177560168464,-0.5563364028930664,1001.585740596056,47.109022245846774,10.93952639478317,5353,1,0.0,7183,417414569817346,24,25.6,-305.62115478515625,0.5130000114440918,16,0.0,0.0,1.57542003E9,,,,0,,6,0.0,1.57542003E9
Raw,677096843,3850037091000000,,,-1261204177560168464,-0.5563364028930664,1001.585740596056,47.109022245846774,10.93952639478317,5353,4,0.0,7183,417414567205945,16,29.3,-382.9565124511719,0.38600000739097595,16,0.0,0.0,1.57542003E9,,,,0,,6,0.0,1.57542003E9
Raw,677096843,3850037091000000,,,-1261204177560168464,-0.5563364028930664,1001.585740596056,47.109022245846774,10.93952639478317,5353,19,0.0,7183,417414573304650,19,27.2,122.08290100097656,0.43299999833106995,16,0.0,0.0,1.57542003E9,,,,0,,6,0.0,1.57542003E9
Raw,677096843,3850037091000000,,,-1261204177560168464,-0.5563364028930664,1001.585740596056,47.109022245846774,10.93952639478317,5353,21,0.0,7183,417414571968233,8,36.4,198.1718292236328,0.23600000143051147,16,0.0,0.0,1.57542003E9,,,,0,,6,0.0,1.57542003E9
Fix,gps,37.425891,-122.171197,2.447327,0.000000,3.216000,1581018998000
Raw,677097824,3850038101000000,,,-1261204177559914990,0.38700342178344727,1001.2616403400898,34.827538467769884,8.327857933337613,5354,14,0.0,207,82597596413897,6,38.9,111.12899017333984,0.24889999628067017,16,0.0,0.0,1.59806246E9,,,,0,,3,0.0,1.59806246E9
Raw,677097824,3850038101000000,,,-1261204177559914990,0.38700342178344727,1001.2616403400898,34.827538467769884,8.327857933337613,5354,13,0.0,207,82597588400520,21,26.2,647.8761596679688,0.4627000093460083,16,0.0,0.0,1.60087501E9,,,,0,,3,0.0,1.60087501E9
Raw,677097824,3850038101000000,,,-1261204177559914990,0.38700342178344727,1001.2616403400898,34.827538467769884,8.327857933337613,5354,15,0.0,207,82597589653478,12,32.2,-498.3539733886719,0.26200002431869507,16,0.0,0.0,1.602E9,,,,0,,3,0.0,1.602E9
Raw,677097825,3850038101000000,,,-1261204177559914990,0.38700342178344727,1001.2616403400898,34.827538467769884,8.327857933337613,5354,5,0.0,207,82597586559527,12,32.7,-714.590087890625,0.257500022649765,16,0.0,0.0,1.60256256E9,,,,0,,3,0.0,1.60256256E9
Raw,677097825,3850038101000000,,,-1261204177559914990,0.38700342178344727,1001.2616403400898,34.827538467769884,8.327857933337613,5354,3,0.0,207,82597592219731,14,30.8,584.04541015625,0.281499981880188,16,0.0,0.0,1.60481254E9,,,,0,,3,0.0,1.60481254E9
Raw,677097825,3850038101000000,,,-1261204177559914990,0.38700342178344727,1001.2616403400898,34.827538467769884,8.327857933337613,5354,4,0.0,207,82597596687139,24,25.9,-144.7183074951172,1.3845001459121704,16,0.0,0.0,1.60537498E9,,,,0,,3,0.0,1.60537498E9
Raw,677097825,3850038101000000,,,-1261204177559914990,0.38700342178344727,1001.2616403400898,34.827538467769884,8.327857933337613,5354,4,0.0,15,417415590662879,12,32.2,298.4954528808594,0.06350000202655792,16,0.0,0.0,1.57542003E9,,,,0,,1,0.0,1.57542003E9
Raw,677097825,3850038101000000,,,-1261204177559914990,0.38700342178344727,1001.2616403400898,34.827538467769884,8.327857933337613,5354,7,0.0,15,417415588800663,9,35.7,-236.8813018798828,0.04650000110268593,16,0.0,0.0,1.57542003E9,,,,0,,1,0.0,1.57542003E9
Raw,677097825,3850038101000000,,,-1261204177559914990,0.38700342178344727,1001.2616403400898,34.827538467769884,8.327857933337613,5354,8,0.0,15,417415581639794,27,24.3,-498.33154296875,0.6829999685287476,16,0.0,0.0,1.57542003E9,,,,0,,1,0.0,1.57542003E9
Raw,677097825,3850038101000000,,,-1261204177559914990,0.38700342178344727,1001.2616403400898,34.827538467769884,8.327857933337613,5354,9,0.0,15,417415593285755,7,37.4,-64.47400665283203,0.04700000211596489,16,0.0,0.0,1.57542003E9,,,,0,,1,0.0,1.57542003E9
Raw,677097825,3850038101000000,,,-1261204177559914990,0.38700342178344727,1001.2616403400898,34.827538467769884,8.327857933337613,5354,16,0.0,15,417415585211480,8,36.9,586.1412963867188,0.03799999877810478,16,0.0,0.0,1.57542003E9,,,,0,,1,0.0,1.57542003E9
Raw,677097825,3850038101000000,,,-1261204177559914990,0.38700342178344727,1001.2616403400898,34.827538467769884,8.327857933337613,5354,23,0.0,15,417415591669595,13,31.2,191.526123046875,0.07159999758005142,16,0.0,0.0,1.57542003E9,,,,0,,1,0.0,1.57542003E9
Raw,677097825,3850038101000000,,,-1261204177559914990,0.38700342178344727,1001.2616403400898,34.827538467769884,8.327857933337613,5354,27,0.0,15,417415582472063,35,22.6,-284.5651550292969,0.7444999814033508,16,0.0,0.0,1.57542003E9,,,,0,,1,0.0,1.57542003E9
Raw,677097826,3850038101000000,,,-1261204177559914990,0.38700342178344727,1001.2616403400898,34.827538467769884,8.327857933337613,5354,30,0.0,15,417415582078288,21,26.0,-464.20574951171875,0.28369998931884766,16,0.0,0.0,1.57542003E9,,,,0,,1,0.0,1.57542003E9
Raw,677097826,3850038101000000,,,-1261204177559914990,0.38700342178344727,1001.2616403400898,34.827538467769884,8.327857933337613,5354,1,0.0,7183,417415579564980,14,30.0,-306.1282043457031,0.09200000017881393,16,0.0,0.0,1.57542003E9,,,,0,,6,0.0,1.57542003E9
Raw,677097826,3850038101000000,,,-1261204177559914990,0.38700342178344727,1001.2616403400898,34.827538467769884,8.327857933337613,5354,4,0.0,7183,417415576953758,17,28.9,-381.3104553222656,0.40150001645088196,16,0.0,0.0,1.57542003E9,,,,0,,6,0.0,1.57542003E9
Raw,677097826,3850038101000000,,,-1261204177559914990,0.38700342178344727,1001.2616403400898,34.827538467769884,8.327857933337613,5354,19,0.0,7183,417415583050766,27,24.7,123.59574127197266,0.5400000214576721,16,0.0,0.0,1.57542003E9,,,,0,,6,0.0,1.57542003E9
Raw,677097826,3850038101000000,,,-1261204177559914990,0.38700342178344727,1001.2616403400898,34.827538467769884,8.327857933337613,5354,21,0.0,7183,417415581714116,9,35.7,199.64080810546875,0.06599999964237213,16,0.0,0.0,1.57542003E9,,,,0,,6,0.0,1.57542003E9
Raw,677098841,3850039074000000,,,-1261204177559669940,0.9290599822998047,1001.2788698077202,39.2917404443157,9.60123524664757,5355,14,0.0,207,82598569168561,7,37.5,111.90632629394531,0.2410000115633011,16,0.0,0.0,1.59806246E9,,,,0,,3,0.0,1.59806246E9
Raw,677098841,3850039074000000,,,-1261204177559669940,0.9290599822998047,1001.2788698077202,39.2917404443157,9.60123524664757,5355,13,0.0,207,82598561153572,19,27.6,648.602294921875,0.3952000141143799,16,0.0,0.0,1.60087501E9,,,,0,,3,0.0,1.60087501E9
Raw,677098841,3850039074000000,,,-1261204177559669940,0.9290599822998047,1001.2788698077202,39.2917404443157,9.60123524664757,5355,15,0.0,207,82598562410184,11,33.3,-497.373291015625,0.27619999647140503,16,0.0,0.0,1.602E9,,,,0,,3,0.0,1.602E9
Raw,677098841,3850039074000000,,,-1261204177559669940,0.9290599822998047,1001.2788698077202,39.2917404443157,9.60123524664757,5355,5,0.0,207,82598559316868,7,37.7,-713.7070922851562,0.25600001215934753,16,0.0,0.0,1.60256256E9,,,,0,,3,0.0,1.60256256E9
Raw,677098842,3850039074000000,,,-1261204177559669940,0.9290599822998047,1001.2788698077202,39.2917404443157,9.60123524664757,5355,3,0.0,207,82598564972792,16,29.3,585.0735473632812,0.31039997935295105,16,0.0,0.0,1.60481254E9,,,,0,,3,0.0,1.60481254E9
Raw,677098842,3850039074000000,,,-1261204177559669940,0.9290599822998047,1001.2788698077202,39.2917404443157,9.60123524664757,5355,4,0.0,207,82598569442418,13,31.5,-143.79736328125,0.2686000168323517,16,0.0,0.0,1.60537498E9,,,,0,,3,0.0,1.60537498E9
Raw,677098842,3850039074000000,,,-1261204177559669940,0.9290599822998047,1001.2788698077202,39.2917404443157,9.60123524664757,5355,4,0.0,15,417416563416938,13,31.3,299.4071960449219,0.08959999680519104,16,0.0,0.0,1.57542003E9,,,,0,,1,0.0,1.57542003E9
Raw,677098843,3850039074000000,,,-1261204177559669940,0.9290599822998047,1001.2788698077202,39.2917404443157,9.60123524664757,5355,7,0.0,15,417416561556431,7,37.0,-236.12124633789062,0.05900000035762787,16,0.0,0.0,1.57542003E9,,,,0,,1,0.0,1.57542003E9
Raw,677098843,3850039074000000,,,-1261204177559669940,0.9290599822998047,1001.2788698077202,39.2917404443157,9.60123524664757,5355,8,0.0,15,417416554396343,21,26.9,-497.251953125,0.271699994802475,16,0.0,0.0,1.57542003E9,,,,0,,1,0.0,1.57542003E9
Raw,677098843,3850039074000000,,,-1261204177559669940,0.9290599822998047,1001.2788698077202,39.2917404443157,9.60123524664757,5355,9,0.0,15,417416566041060,8,36.6,-63.639225006103516,0.03949999809265137,16,0.0,0.0,1.57542003E9,,,,0,,1,0.0,1.57542003E9
Raw,677098843,3850039074000000,,,-1261204177559669940,0.9290599822998047,1001.2788698077202,39.2917404443157,9.60123524664757,5355,16,0.0,15,417416557964603,8,36.4,586.9652709960938,0.0560000017285347,16,0.0,0.0,1.57542003E9,,,,0,,1,0.0,1.57542003E9
Raw,677098843,3850039074000000,,,-1261204177559669940,0.9290599822998047,1001.2788698077202,39.2917404443157,9.60123524664757,5355,23,0.0,15,417416564423918,12,32.2,192.3199462890625,0.08449999988079071,16,0.0,0.0,1.57542003E9,,,,0,,1,0.0,1.57542003E9
Raw,677098843,3850039074000000,,,-1261204177559669940,0.9290599822998047,1001.2788698077202,39.2917404443157,9.60123524664757,5355,27,0.0,15,417416555228105,24,25.1,-283.8255615234375,1.183000087738037,16,0.0,0.0,1.57542003E9,,,,0,,1,0.0,1.57542003E9
Raw,677098844,3850039074000000,,,-1261204177559669940,0.9290599822998047,1001.2788698077202,39.2917404443157,9.60123524664757,5355,30,0.0,15,417416554834742,12,32.2,-463.6461181640625,0.06949999928474426,16,0.0,0.0,1.57542003E9,,,,0,,1,0.0,1.57542003E9
Raw,677098844,3850039074000000,,,-1261204177559669940,0.9290599822998047,1001.2788698077202,39.2917404443157,9.60123524664757,5355,1,0.0,7183,417416552321007,14,30.5,-304.2301940917969,0.09950000047683716,16,0.0,0.0,1.57542003E9,,,,0,,6,0.0,1.57542003E9
Raw,677098844,3850039074000000,,,-1261204177559669940,0.9290599822998047,1001.2788698077202,39.2917404443157,9.60123524664757,5355,4,0.0,7183,417416549710050,11,33.2,-381.3304748535156,0.0747000053524971,16,0.0,0.0,1.57542003E9,,,,0,,6,0.0,1.57542003E9
Raw,677098844,3850039074000000,,,-1261204177559669940,0.9290599822998047,1001.2788698077202,39.2917404443157,9.60123524664757,5355,19,0.0,7183,417416555805424,19,27.3,123.9324722290039,0.19820000231266022,16,0.0,0.0,1.57542003E9,,,,0,,6,0.0,1.57542003E9
Raw,677098844,3850039074000000,,,-1261204177559669940,0.9290599822998047,1001.2788698077202,39.2917404443157,9.60123524664757,5355,21,0.0,7183,417416554468522,9,35.2,199.03179931640625,0.06750000268220901,16,0.0,0.0,1.57542003E9,,,,0,,6,0.0,1.57542003E9
Fix,gps,37.425891,-122.171197,2.457306,0.000000,3.216000,1581018999000
Fix,gps,37.425890,-122.171197,2.450195,0.000000,3.216000,1581019000000
Raw,677099821,3850040091000000,,,-1261204177558820452,0.9341020584106445,1001.3283463194966,42.12853483116033,9.191839252417322,5356,14,0.0,207,82599585318701,6,38.7,114.36469268798828,0.2624000012874603,16,0.0,0.0,1.59806246E9,,,,0,,3,0.0,1.59806246E9
Raw,677099821,3850040091000000,,,-1261204177558820452,0.9341020584106445,1001.3283463194966,42.12853483116033,9.191839252417322,5356,13,0.0,207,82599577301896,27,24.9,650.9712524414062,0.8769999742507935,16,0.0,0.0,1.60087501E9,,,,0,,3,0.0,1.60087501E9
Raw,677099821,3850040091000000,,,-1261204177558820452,0.9341020584106445,1001.3283463194966,42.12853483116033,9.191839252417322,5356,15,0.0,207,82599578562351,11,33.1,-495.08880615234375,0.2702000141143799,16,0.0,0.0,1.602E9,,,,0,,3,0.0,1.602E9
Raw,677099821,3850040091000000,,,-1261204177558820452,0.9341020584106445,1001.3283463194966,42.12853483116033,9.191839252417322,5356,5,0.0,207,82599575469772,9,35.4,-711.3040161132812,0.25699999928474426,16,0.0,0.0,1.60256256E9,,,,0,,3,0.0,1.60256256E9
Raw,677099821,3850040091000000,,,-1261204177558820452,0.9341020584106445,1001.3283463194966,42.12853483116033,9.191839252417322,5356,3,0.0,207,82599581121379,13,31.8,587.3450317382812,0.2865999937057495,16,0.0,0.0,1.60481254E9,,,,0,,3,0.0,1.60481254E9
Raw,677099821,3850040091000000,,,-1261204177558820452,0.9341020584106445,1001.3283463194966,42.12853483116033,9.191839252417322,5356,4,0.0,207,82599585593580,10,34.0,-141.26084899902344,0.2761000096797943,16,0.0,0.0,1.60537498E9,,,,0,,3,0.0,1.60537498E9
Raw,677099821,3850040091000000,,,-1261204177558820452,0.9341020584106445,1001.3283463194966,42.12853483116033,9.191839252417322,5356,4,0.0,15,417417579566427,9,35.6,301.74188232421875,0.06300000101327896,16,0.0,0.0,1.57542003E9,,,,0,,1,0.0,1.57542003E9
Raw,677099822,3850040091000000,,,-1261204177558820452,0.9341020584106445,1001.3283463194966,42.12853483116033,9.191839252417322,5356,7,0.0,15,417417577707730,12,32.0,-233.684326171875,0.07400000095367432,16,0.0,0.0,1.57542003E9,,,,0,,1,0.0,1.57542003E9
Raw,677099822,3850040091000000,,,-1261204177558820452,0.9341020584106445,1001.3283463194966,42.12853483116033,9.191839252417322,5356,8,0.0,15,417417570548547,17,28.4,-495.2277526855469,0.11240000277757645,16,0.0,0.0,1.57542003E9,,,,0,,1,0.0,1.57542003E9
Raw,677099822,3850040091000000,,,-1261204177558820452,0.9341020584106445,1001.3283463194966,42.12853483116033,9.191839252417322,5356,9,0.0,15,417417582191724,6,38.9,-61.181068420410156,0.05790000036358833,16,0.0,0.0,1.57542003E9,,,,0,,1,0.0,1.57542003E9
Raw,677099822,3850040091000000,,,-1261204177558820452,0.9341020584106445,1001.3283463194966,42.12853483116033,9.191839252417322,5356,16,0.0,15,417417574113111,6,38.7,589.3423461914062,0.045900002121925354,16,0.0,0.0,1.57542003E9,,,,0,,1,0.0,1.57542003E9
Raw,677099822,3850040091000000,,,-1261204177558820452,0.9341020584106445,1001.3283463194966,42.12853483116033,9.191839252417322,5356,23,0.0,15,417417580573817,6,39.6,194.7735595703125,0.05190000310540199,16,0.0,0.0,1.57542003E9,,,,0,,1,0.0,1.57542003E9
Raw,677099822,3850040091000000,,,-1261204177558820452,0.9341020584106445,1001.3283463194966,42.12853483116033,9.191839252417322,5356,27,0.0,15,417417571379535,13,31.5,-281.3821105957031,0.07159999758005142,16,0.0,0.0,1.57542003E9,,,,0,,1,0.0,1.57542003E9
Raw,677099822,3850040091000000,,,-1261204177558820452,0.9341020584106445,1001.3283463194966,42.12853483116033,9.191839252417322,5356,30,0.0,15,417417570986910,24,25.0,-461.4025573730469,1.1755000352859497,16,0.0,0.0,1.57542003E9,,,,0,,1,0.0,1.57542003E9
Raw,677099822,3850040091000000,,,-1261204177558820452,0.9341020584106445,1001.3283463194966,42.12853483116033,9.191839252417322,5356,1,0.0,7183,417417568472537,12,32.0,-301.8343200683594,0.3075000047683716,16,0.0,0.0,1.57542003E9,,,,0,,6,0.0,1.57542003E9
Raw,677099822,3850040091000000,,,-1261204177558820452,0.9341020584106445,1001.3283463194966,42.12853483116033,9.191839252417322,5356,4,0.0,7183,417417565861834,10,34.6,-378.2467346191406,0.26899999380111694,16,0.0,0.0,1.57542003E9,,,,0,,6,0.0,1.57542003E9
Raw,677099822,3850040091000000,,,-1261204177558820452,0.9341020584106445,1001.3283463194966,42.12853483116033,9.191839252417322,5356,21,0.0,7183,417417570618323,8,36.2,202.8435516357422,0.2345000058412552,16,0.0,0.0,1.57542003E9,,,,0,,6,0.0,1.57542003E9
Raw,677100850,3850041084000000,,,-1261204177557917013,0.7331852912902832,1001.2999409809709,49.94037692586244,9.390410819480264,5357,14,0.0,207,82600577414974,8,36.2,113.88737487792969,0.25600001215934753,16,0.0,0.0,1.59806246E9,,,,0,,3,0.0,1.59806246E9
Raw,677100850,3850041084000000,,,-1261204177557917013,0.7331852912902832,1001.2999409809709,49.94037692586244,9.390410819480264,5357,13,0.0,207,82600569396365,21,26.5,650.0528564453125,0.4642000198364258,16,0.0,0.0,1.60087501E9,,,,0,,3,0.0,1.60087501E9
Raw,677100851,3850041084000000,,,-1261204177557917013,0.7331852912902832,1001.2999409809709,49.94037692586244,9.390410819480264,5357,15,0.0,207,82600570660657,31,23.7,-494.9944152832031,0.9264999628067017,16,0.0,0.0,1.602E9,,,,0,,3,0.0,1.602E9
Raw,677100851,3850041084000000,,,-1261204177557917013,0.7331852912902832,1001.2999409809709,49.94037692586244,9.390410819480264,5357,5,0.0,207,82600567568819,14,30.2,-711.4827880859375,0.27399998903274536,16,0.0,0.0,1.60256256E9,,,,0,,3,0.0,1.60256256E9
Raw,677100851,3850041084000000,,,-1261204177557917013,0.7331852912902832,1001.2999409809709,49.94037692586244,9.390410819480264,5357,3,0.0,207,82600573216085,7,37.1,586.2987060546875,0.24700000882148743,16,0.0,0.0,1.60481254E9,,,,0,,3,0.0,1.60481254E9
Raw,677100852,3850041084000000,,,-1261204177557917013,0.7331852912902832,1001.2999409809709,49.94037692586244,9.390410819480264,5357,4,0.0,207,82600577690646,16,29.2,-141.73696899414062,0.29989999532699585,16,0.0,0.0,1.60537498E9,,,,0,,3,0.0,1.60537498E9
Raw,677100852,3850041084000000,,,-1261204177557917013,0.7331852912902832,1001.2999409809709,49.94037692586244,9.390410819480264,5357,4,0.0,15,417418571662153,16,29.9,300.96331787109375,0.0908999964594841,16,0.0,0.0,1.57542003E9,,,,0,,1,0.0,1.57542003E9
Raw,677100852,3850041084000000,,,-1261204177557917013,0.7331852912902832,1001.2999409809709,49.94037692586244,9.390410819480264,5357,7,0.0,15,417418569805170,5,40.3,-234.08653259277344,0.033400002866983414,16,0.0,0.0,1.57542003E9,,,,0,,1,0.0,1.57542003E9
Raw,677100852,3850041084000000,,,-1261204177557917013,0.7331852912902832,1001.2999409809709,49.94037692586244,9.390410819480264,5357,8,0.0,15,417418562646884,13,31.4,-496.22747802734375,0.08810000121593475,16,0.0,0.0,1.57542003E9,,,,0,,1,0.0,1.57542003E9
Raw,677100852,3850041084000000,,,-1261204177557917013,0.7331852912902832,1001.2999409809709,49.94037692586244,9.390410819480264,5357,9,0.0,15,417418574288586,9,35.1,-61.74486541748047,0.05550000071525574,16,0.0,0.0,1.57542003E9,,,,0,,1,0.0,1.57542003E9
Raw,677100852,3850041084000000,,,-1261204177557917013,0.7331852912902832,1001.2999409809709,49.94037692586244,9.390410819480264,5357,16,0.0,15,417418566207803,10,34.4,588.300537109375,0.07760000228881836,16,0.0,0.0,1.57542003E9,,,,0,,1,0.0,1.57542003E9
Raw,677100852,3850041084000000,,,-1261204177557917013,0.7331852912902832,1001.2999409809709,49.94037692586244,9.390410819480264,5357,23,0.0,15,417418572669851,5,41.8,193.89024353027344,0.03590000048279762,16,0.0,0.0,1.57542003E9,,,,0,,1,0.0,1.57542003E9
Raw,677100853,3850041084000000,,,-1261204177557917013,0.7331852912902832,1001.2999409809709,49.94037692586244,9.390410819480264,5357,27,0.0,15,417418563477156,11,33.9,-282.6535339355469,0.07770000398159027,16,0.0,0.0,1.57542003E9,,,,0,,1,0.0,1.57542003E9
Raw,677100853,3850041084000000,,,-1261204177557917013,0.7331852912902832,1001.2999409809709,49.94037692586244,9.390410819480264,5357,30,0.0,15,417418563085043,12,32.8,-461.462890625,0.08299999684095383,16,0.0,0.0,1.57542003E9,,,,0,,1,0.0,1.57542003E9
Raw,677100853,3850041084000000,,,-1261204177557917013,0.7331852912902832,1001.2999409809709,49.94037692586244,9.390410819480264,5357,1,0.0,7183,417418560570213,14,30.1,-301.4768371582031,0.09950000047683716,16,0.0,0.0,1.57542003E9,,,,0,,6,0.0,1.57542003E9
Raw,677100853,3850041084000000,,,-1261204177557917013,0.7331852912902832,1001.2999409809709,49.94037692586244,9.390410819480264,5357,4,0.0,7183,417418557959744,17,28.1,-379.22674560546875,0.4090000092983246,16,0.0,0.0,1.57542003E9,,,,0,,6,0.0,1.57542003E9
Raw,677100853,3850041084000000,,,-1261204177557917013,0.7331852912902832,1001.2999409809709,49.94037692586244,9.390410819480264,5357,19,0.0,7183,417418564051708,27,24.9,127.45869445800781,0.5475000143051147,16,0.0,0.0,1.57542003E9,,,,0,,6,0.0,1.57542003E9
Raw,677100853,3850041084000000,,,-1261204177557917013,0.7331852912902832,1001.2999409809709,49.94037692586244,9.390410819480264,5357,21,0.0,7183,417418562714323,8,36.3,200.96507263183594,0.06949999928474426,16,0.0,0.0,1.57542003E9,,,,0,,6,0.0,1.57542003E9
Fix,gps,37.425887,-122.171192,2.004150,0.670000,3.216000,1581019001000
Fix,gps,37.425884,-122.171184,1.993256,0.490000,3.216000,1581019002000
Raw,677101838,3850042098000000,,,-1261204177557052608,-0.5086166858673096,1001.3432474806905,46.97889237026054,8.977976860325068,5358,14,0.0,207,82601590550238,9,35.3,117.50154876708984,0.24950000643730164,16,0.0,0.0,1.59806246E9,,,,0,,3,0.0,1.59806246E9
Raw,677101838,3850042098000000,,,-1261204177557052608,-0.5086166858673096,1001.3432474806905,46.97889237026054,8.977976860325068,5358,13,0.0,207,82601582529711,14,30.7,653.5003051757812,0.29649999737739563,16,0.0,0.0,1.60087501E9,,,,0,,3,0.0,1.60087501E9
Raw,677101839,3850042098000000,,,-1261204177557052608,-0.5086166858673096,1001.3432474806905,46.97889237026054,8.977976860325068,5358,15,0.0,207,82601583798015,19,27.0,-491.7545471191406,0.39820003509521484,16,0.0,0.0,1.602E9,,,,0,,3,0.0,1.602E9
Raw,677101839,3850042098000000,,,-1261204177557052608,-0.5086166858673096,1001.3432474806905,46.97889237026054,8.977976860325068,5358,5,0.0,207,82601580706830,9,35.1,-708.117431640625,0.2645000219345093,16,0.0,0.0,1.60256256E9,,,,0,,3,0.0,1.60256256E9
Raw,677101839,3850042098000000,,,-1261204177557052608,-0.5086166858673096,1001.3432474806905,46.97889237026054,8.977976860325068,5358,3,0.0,207,82601586349672,5,40.0,590.1197509765625,0.2589000165462494,16,0.0,0.0,1.60481254E9,,,,0,,3,0.0,1.60481254E9
Raw,677101839,3850042098000000,,,-1261204177557052608,-0.5086166858673096,1001.3432474806905,46.97889237026054,8.977976860325068,5358,4,0.0,207,82601590826798,12,32.8,-138.06590270996094,0.26350000500679016,16,0.0,0.0,1.60537498E9,,,,0,,3,0.0,1.60537498E9
Raw,677101839,3850042098000000,,,-1261204177557052608,-0.5086166858673096,1001.3432474806905,46.97889237026054,8.977976860325068,5358,4,0.0,15,417419584796691,17,28.3,304.9895935058594,0.13340000808238983,16,0.0,0.0,1.57542003E9,,,,0,,1,0.0,1.57542003E9
Raw,677101839,3850042098000000,,,-1261204177557052608,-0.5086166858673096,1001.3432474806905,46.97889237026054,8.977976860325068,5358,7,0.0,15,417419582941581,6,38.0,-230.5763397216797,0.05790000036358833,16,0.0,0.0,1.57542003E9,,,,0,,1,0.0,1.57542003E9
Raw,677101840,3850042098000000,,,-1261204177557052608,-0.5086166858673096,1001.3432474806905,46.97889237026054,8.977976860325068,5358,8,0.0,15,417419575784182,16,29.5,-492.54742431640625,0.09690000116825104,16,0.0,0.0,1.57542003E9,,,,0,,1,0.0,1.57542003E9
Raw,677101840,3850042098000000,,,-1261204177557052608,-0.5086166858673096,1001.3432474806905,46.97889237026054,8.977976860325068,5358,9,0.0,15,417419587424410,7,37.0,-58.33445739746094,0.06800000369548798,16,0.0,0.0,1.57542003E9,,,,0,,1,0.0,1.57542003E9
Raw,677101840,3850042098000000,,,-1261204177557052608,-0.5086166858673096,1001.3432474806905,46.97889237026054,8.977976860325068,5358,16,0.0,15,417419579341429,6,39.8,592.0797119140625,0.05040000379085541,16,0.0,0.0,1.57542003E9,,,,0,,1,0.0,1.57542003E9
Raw,677101840,3850042098000000,,,-1261204177557052608,-0.5086166858673096,1001.3432474806905,46.97889237026054,8.977976860325068,5358,23,0.0,15,417419585804830,6,38.8,197.42015075683594,0.06240000203251839,16,0.0,0.0,1.57542003E9,,,,0,,1,0.0,1.57542003E9
Raw,677101841,3850042098000000,,,-1261204177557052608,-0.5086166858673096,1001.3432474806905,46.97889237026054,8.977976860325068,5358,27,0.0,15,417419576613734,11,33.5,-278.8876037597656,0.06720000505447388,16,0.0,0.0,1.57542003E9,,,,0,,1,0.0,1.57542003E9
Raw,677101841,3850042098000000,,,-1261204177557052608,-0.5086166858673096,1001.3432474806905,46.97889237026054,8.977976860325068,5358,30,0.0,15,417419576222182,12,32.5,-458.48773193359375,0.07249999791383743,16,0.0,0.0,1.57542003E9,,,,0,,1,0.0,1.57542003E9
Raw,677101841,3850042098000000,,,-1261204177557052608,-0.5086166858673096,1001.3432474806905,46.97889237026054,8.977976860325068,5358,1,0.0,7183,417419573706835,16,29.3,-299.15118408203125,0.3889999985694885,16,0.0,0.0,1.57542003E9,,,,0,,6,0.0,1.57542003E9
Raw,677101841,3850042098000000,,,-1261204177557052608,-0.5086166858673096,1001.3432474806905,46.97889237026054,8.977976860325068,5358,4,0.0,7183,417419571096633,12,32.2,-375.2305603027344,0.31200000643730164,16,0.0,0.0,1.57542003E9,,,,0,,6,0.0,1.57542003E9
Raw,677101843,3850042098000000,,,-1261204177557052608,-0.5086166858673096,1001.3432474806905,46.97889237026054,8.977976860325068,5358,19,0.0,7183,417419577186897,14,30.1,130.61758422851562,0.35899999737739563,16,0.0,0.0,1.57542003E9,,,,0,,6,0.0,1.57542003E9
Raw,677101844,3850042098000000,,,-1261204177557052608,-0.5086166858673096,1001.3432474806905,46.97889237026054,8.977976860325068,5358,21,0.0,7183,417419575849260,13,31.8,205.93582153320312,0.3319999873638153,16,0.0,0.0,1.57542003E9,,,,0,,6,0.0,1.57542003E9
Fix,gps,37.425881,-122.171180,1.730133,0.330000,3.216000,1581019003000
Raw,677102836,3850043090000000,,,-1261204177556352986,-0.48476600646972656,1001.5662992373109,58.25833125260047,11.008624191250217,5359,14,0.0,207,82602581850286,13,31.8,118.2704849243164,0.2865999937057495,16,0.0,0.0,1.59806246E9,,,,0,,3,0.0,1.59806246E9
Raw,677102836,3850043090000000,,,-1261204177556352986,-0.48476600646972656,1001.5662992373109,58.25833125260047,11.008624191250217,5359,5,0.0,207,82602572009645,13,31.6,-707.4923706054688,0.27309998869895935,16,0.0,0.0,1.60256256E9,,,,0,,3,0.0,1.60256256E9
Raw,677102836,3850043090000000,,,-1261204177556352986,-0.48476600646972656,1001.5662992373109,58.25833125260047,11.008624191250217,5359,3,0.0,207,82602577648191,10,34.9,591.10986328125,0.26410001516342163,16,0.0,0.0,1.60481254E9,,,,0,,3,0.0,1.60481254E9
Raw,677102837,3850043090000000,,,-1261204177556352986,-0.48476600646972656,1001.5662992373109,58.25833125260047,11.008624191250217,5359,4,0.0,207,82602582127594,14,30.9,-137.4355926513672,0.29649999737739563,16,0.0,0.0,1.60537498E9,,,,0,,3,0.0,1.60537498E9
Raw,677102837,3850043090000000,,,-1261204177556352986,-0.48476600646972656,1001.5662992373109,58.25833125260047,11.008624191250217,5359,7,0.0,15,417420574242794,6,38.3,-230.03250122070312,0.045900002121925354,16,0.0,0.0,1.57542003E9,,,,0,,1,0.0,1.57542003E9
Raw,677102837,3850043090000000,,,-1261204177556352986,-0.48476600646972656,1001.5662992373109,58.25833125260047,11.008624191250217,5359,8,0.0,15,417420567086247,14,30.8,-491.55706787109375,0.07400000095367432,16,0.0,0.0,1.57542003E9,,,,0,,1,0.0,1.57542003E9
Raw,677102837,3850043090000000,,,-1261204177556352986,-0.48476600646972656,1001.5662992373109,58.25833125260047,11.008624191250217,5359,9,0.0,15,417420578725035,8,36.5,-57.488548278808594,0.057500001043081284,16,0.0,0.0,1.57542003E9,,,,0,,1,0.0,1.57542003E9
Raw,677102837,3850043090000000,,,-1261204177556352986,-0.48476600646972656,1001.5662992373109,58.25833125260047,11.008624191250217,5359,16,0.0,15,417420570639935,6,38.4,593.0236206054688,0.039900001138448715,16,0.0,0.0,1.57542003E9,,,,0,,1,0.0,1.57542003E9
Raw,677102837,3850043090000000,,,-1261204177556352986,-0.48476600646972656,1001.5662992373109,58.25833125260047,11.008624191250217,5359,23,0.0,15,417420577104606,7,37.0,198.39781188964844,0.05300000309944153,16,0.0,0.0,1.57542003E9,,,,0,,1,0.0,1.57542003E9
Raw,677102838,3850043090000000,,,-1261204177556352986,-0.48476600646972656,1001.5662992373109,58.25833125260047,11.008624191250217,5359,27,0.0,15,417420567915073,7,37.4,-277.7215576171875,0.03800000250339508,16,0.0,0.0,1.57542003E9,,,,0,,1,0.0,1.57542003E9
Raw,677102838,3850043090000000,,,-1261204177556352986,-0.48476600646972656,1001.5662992373109,58.25833125260047,11.008624191250217,5359,30,0.0,15,417420567524201,21,26.0,-457.27581787109375,0.2612000107765198,16,0.0,0.0,1.57542003E9,,,,0,,1,0.0,1.57542003E9
Raw,677102838,3850043090000000,,,-1261204177556352986,-0.48476600646972656,1001.5662992373109,58.25833125260047,11.008624191250217,5359,1,0.0,7183,417420565008262,9,35.3,-300.037353515625,0.07200000435113907,16,0.0,0.0,1.57542003E9,,,,0,,6,0.0,1.57542003E9
Raw,677102838,3850043090000000,,,-1261204177556352986,-0.48476600646972656,1001.5662992373109,58.25833125260047,11.008624191250217,5359,4,0.0,7183,417420562398359,13,31.9,-374.2313537597656,0.0940999984741211,16,0.0,0.0,1.57542003E9,,,,0,,6,0.0,1.57542003E9
Raw,677102838,3850043090000000,,,-1261204177556352986,-0.48476600646972656,1001.5662992373109,58.25833125260047,11.008624191250217,5359,19,0.0,7183,417420568486954,19,27.6,130.28842163085938,0.1997000128030777,16,0.0,0.0,1.57542003E9,,,,0,,6,0.0,1.57542003E9
Raw,677102838,3850043090000000,,,-1261204177556352986,-0.48476600646972656,1001.5662992373109,58.25833125260047,11.008624191250217,5359,21,0.0,7183,417420567149039,11,33.7,205.0594024658203,0.07770000398159027,16,0.0,0.0,1.57542003E9,,,,0,,6,0.0,1.57542003E9
Raw,677103859,3850044102000000,,,-1261204177556063191,-0.3542747497558594,1001.7380118370056,61.81401629860137,11.332045778104433,5360,14,0.0,207,82603593560134,8,36.2,118.48335266113281,0.25,16,0.0,0.0,1.59806246E9,,,,0,,3,0.0,1.59806246E9
Raw,677103860,3850044102000000,,,-1261204177556063191,-0.3542747497558594,1001.7380118370056,61.81401629860137,11.332045778104433,5360,13,0.0,207,82603585536060,21,26.8,654.2575073242188,0.48820000886917114,16,0.0,0.0,1.60087501E9,,,,0,,3,0.0,1.60087501E9
Raw,677103860,3850044102000000,,,-1261204177556063191,-0.3542747497558594,1001.7380118370056,61.81401629860137,11.332045778104433,5360,15,0.0,207,82603586811779,21,26.8,-490.6278381347656,0.4597000181674957,16,0.0,0.0,1.602E9,,,,0,,3,0.0,1.602E9
Raw,677103860,3850044102000000,,,-1261204177556063191,-0.3542747497558594,1001.7380118370056,61.81401629860137,11.332045778104433,5360,5,0.0,207,82603583722217,10,34.0,-708.09912109375,0.27310001850128174,16,0.0,0.0,1.60256256E9,,,,0,,3,0.0,1.60256256E9
Raw,677103860,3850044102000000,,,-1261204177556063191,-0.3542747497558594,1001.7380118370056,61.81401629860137,11.332045778104433,5360,3,0.0,207,82603589356492,9,35.6,592.4189453125,0.24800001084804535,16,0.0,0.0,1.60481254E9,,,,0,,3,0.0,1.60481254E9
Raw,677103860,3850044102000000,,,-1261204177556063191,-0.3542747497558594,1001.7380118370056,61.81401629860137,11.332045778104433,5360,4,0.0,207,82603593838380,12,32.7,-136.94900512695312,0.2680000066757202,16,0.0,0.0,1.60537498E9,,,,0,,3,0.0,1.60537498E9
Raw,677103860,3850044102000000,,,-1261204177556063191,-0.3542747497558594,1001.7380118370056,61.81401629860137,11.332045778104433,5360,3,0.0,15,417421577788324,35,22.2,725.837158203125,0.796999990940094,16,0.0,0.0,1.57542003E9,,,,0,,1,0.0,1.57542003E9
Raw,677103861,3850044102000000,,,-1261204177556063191,-0.3542747497558594,1001.7380118370056,61.81401629860137,11.332045778104433,5360,4,0.0,15,417421587805348,17,28.5,306.0071105957031,0.10790000110864639,16,0.0,0.0,1.57542003E9,,,,0,,1,0.0,1.57542003E9
Raw,677103861,3850044102000000,,,-1261204177556063191,-0.3542747497558594,1001.7380118370056,61.81401629860137,11.332045778104433,5360,7,0.0,15,417421585953804,6,38.5,-229.8784637451172,0.06240000203251839,16,0.0,0.0,1.57542003E9,,,,0,,1,0.0,1.57542003E9
Raw,677103861,3850044102000000,,,-1261204177556063191,-0.3542747497558594,1001.7380118370056,61.81401629860137,11.332045778104433,5360,8,0.0,15,417421578798150,24,25.8,-490.222412109375,1.1875,16,0.0,0.0,1.57542003E9,,,,0,,1,0.0,1.57542003E9
Raw,677103861,3850044102000000,,,-1261204177556063191,-0.3542747497558594,1001.7380118370056,61.81401629860137,11.332045778104433,5360,9,0.0,15,417421590435492,7,37.3,-57.056793212890625,0.042500000447034836,16,0.0,0.0,1.57542003E9,,,,0,,1,0.0,1.57542003E9
Raw,677103861,3850044102000000,,,-1261204177556063191,-0.3542747497558594,1001.7380118370056,61.81401629860137,11.332045778104433,5360,16,0.0,15,417421582348171,10,34.9,593.2837524414062,0.07159999758005142,16,0.0,0.0,1.57542003E9,,,,0,,1,0.0,1.57542003E9
Raw,677103861,3850044102000000,,,-1261204177556063191,-0.3542747497558594,1001.7380118370056,61.81401629860137,11.332045778104433,5360,23,0.0,15,417421588814190,8,36.5,198.96095275878906,0.042500000447034836,16,0.0,0.0,1.57542003E9,,,,0,,1,0.0,1.57542003E9
Raw,677103861,3850044102000000,,,-1261204177556063191,-0.3542747497558594,1001.7380118370056,61.81401629860137,11.332045778104433,5360,27,0.0,15,417421579626285,16,29.6,-277.4739685058594,0.10289999842643738,16,0.0,0.0,1.57542003E9,,,,0,,1,0.0,1.57542003E9
Raw,677103862,3850044102000000,,,-1261204177556063191,-0.3542747497558594,1001.7380118370056,61.81401629860137,11.332045778104433,5360,30,0.0,15,417421579235958,16,29.7,-457.1591796875,0.10289999842643738,16,0.0,0.0,1.57542003E9,,,,0,,1,0.0,1.57542003E9
Raw,677103863,3850044102000000,,,-1261204177556063191,-0.3542747497558594,1001.7380118370056,61.81401629860137,11.332045778104433,5360,1,0.0,7183,417421576719504,13,31.0,-298.9334716796875,0.09109999984502792,16,0.0,0.0,1.57542003E9,,,,0,,6,0.0,1.57542003E9
Raw,677103863,3850044102000000,,,-1261204177556063191,-0.3542747497558594,1001.7380118370056,61.81401629860137,11.332045778104433,5360,4,0.0,7183,417421574109806,17,28.8,-374.3229064941406,0.1363999992609024,16,0.0,0.0,1.57542003E9,,,,0,,6,0.0,1.57542003E9
Raw,677103863,3850044102000000,,,-1261204177556063191,-0.3542747497558594,1001.7380118370056,61.81401629860137,11.332045778104433,5360,19,0.0,7183,417421580196750,13,31.6,130.97056579589844,0.09109999984502792,16,0.0,0.0,1.57542003E9,,,,0,,6,0.0,1.57542003E9
Raw,677103863,3850044102000000,,,-1261204177556063191,-0.3542747497558594,1001.7380118370056,61.81401629860137,11.332045778104433,5360,21,0.0,7183,417421578858569,11,33.8,205.34410095214844,0.07620000094175339,16,0.0,0.0,1.57542003E9,,,,0,,6,0.0,1.57542003E9
Fix,gps,37.425877,-122.171175,1.678864,0.380000,3.216000,1581019004000
Fix,gps,37.425884,-122.171168,1.271637,1.080000,3.216000,1581019005000
Raw,677104833,3850045091000000,,,-1261204177555612534,0.10283851623535156,1002.4033254012465,62.641405250632204,16.522361930930426,5361,14,0.0,207,82604582109111,12,32.6,117.81916046142578,0.2815000116825104,16,0.0,0.0,1.59806246E9,,,,0,,3,0.0,1.59806246E9
Raw,677104833,3850045091000000,,,-1261204177555612534,0.10283851623535156,1002.4033254012465,62.641405250632204,16.522361930930426,5361,15,0.0,207,82604575362965,13,31.5,-491.1952209472656,0.2775999903678894,16,0.0,0.0,1.602E9,,,,0,,3,0.0,1.602E9
Raw,677104833,3850045091000000,,,-1261204177555612534,0.10283851623535156,1002.4033254012465,62.641405250632204,16.522361930930426,5361,5,0.0,207,82604572274087,21,26.5,-708.9827880859375,0.46869999170303345,16,0.0,0.0,1.60256256E9,,,,0,,3,0.0,1.60256256E9
Raw,677104833,3850045091000000,,,-1261204177555612534,0.10283851623535156,1002.4033254012465,62.641405250632204,16.522361930930426,5361,3,0.0,207,82604577903915,13,31.5,591.1871948242188,0.28060001134872437,16,0.0,0.0,1.60481254E9,,,,0,,3,0.0,1.60481254E9
Raw,677104833,3850045091000000,,,-1261204177555612534,0.10283851623535156,1002.4033254012465,62.641405250632204,16.522361930930426,5361,4,0.0,207,82604582388273,11,33.5,-137.7454071044922,0.27619999647140503,16,0.0,0.0,1.60537498E9,,,,0,,3,0.0,1.60537498E9
Raw,677104833,3850045091000000,,,-1261204177555612534,0.10283851623535156,1002.4033254012465,62.641405250632204,16.522361930930426,5361,4,0.0,15,417422576353787,7,37.6,305.1580810546875,0.051500000059604645,16,0.0,0.0,1.57542003E9,,,,0,,1,0.0,1.57542003E9
Raw,677104834,3850045091000000,,,-1261204177555612534,0.10283851623535156,1002.4033254012465,62.641405250632204,16.522361930930426,5361,7,0.0,15,417422574504018,10,34.5,-230.47450256347656,0.05959999933838844,16,0.0,0.0,1.57542003E9,,,,0,,1,0.0,1.57542003E9
Raw,677104834,3850045091000000,,,-1261204177555612534,0.10283851623535156,1002.4033254012465,62.641405250632204,16.522361930930426,5361,8,0.0,15,417422567349193,21,26.4,-491.4527282714844,0.2612000107765198,16,0.0,0.0,1.57542003E9,,,,0,,1,0.0,1.57542003E9
Raw,677104834,3850045091000000,,,-1261204177555612534,0.10283851623535156,1002.4033254012465,62.641405250632204,16.522361930930426,5361,9,0.0,15,417422578985129,10,34.5,-57.90068817138672,0.06560000032186508,16,0.0,0.0,1.57542003E9,,,,0,,1,0.0,1.57542003E9
Raw,677104834,3850045091000000,,,-1261204177555612534,0.10283851623535156,1002.4033254012465,62.641405250632204,16.522361930930426,5361,16,0.0,15,417422570895681,9,35.4,592.0052490234375,0.0494999997317791,16,0.0,0.0,1.57542003E9,,,,0,,1,0.0,1.57542003E9
Raw,677104834,3850045091000000,,,-1261204177555612534,0.10283851623535156,1002.4033254012465,62.641405250632204,16.522361930930426,5361,23,0.0,15,417422577362974,5,41.3,198.33596801757812,0.04340000078082085,16,0.0,0.0,1.57542003E9,,,,0,,1,0.0,1.57542003E9
Raw,677104834,3850045091000000,,,-1261204177555612534,0.10283851623535156,1002.4033254012465,62.641405250632204,16.522361930930426,5361,27,0.0,15,417422568176652,8,36.2,-278.028564453125,0.042500000447034836,16,0.0,0.0,1.57542003E9,,,,0,,1,0.0,1.57542003E9
Raw,677104835,3850045091000000,,,-1261204177555612534,0.10283851623535156,1002.4033254012465,62.641405250632204,16.522361930930426,5361,30,0.0,15,417422567786900,16,29.1,-458.2071838378906,0.08489999920129776,16,0.0,0.0,1.57542003E9,,,,0,,1,0.0,1.57542003E9
Raw,677104835,3850045091000000,,,-1261204177555612534,0.10283851623535156,1002.4033254012465,62.641405250632204,16.522361930930426,5361,1,0.0,7183,417422565269943,19,27.5,-296.82232666015625,0.19520001113414764,16,0.0,0.0,1.57542003E9,,,,0,,6,0.0,1.57542003E9
Raw,677104835,3850045091000000,,,-1261204177555612534,0.10283851623535156,1002.4033254012465,62.641405250632204,16.522361930930426,5361,4,0.0,7183,417422562660515,19,27.9,-373.6160583496094,0.19670000672340393,16,0.0,0.0,1.57542003E9,,,,0,,6,0.0,1.57542003E9
Raw,677104835,3850045091000000,,,-1261204177555612534,0.10283851623535156,1002.4033254012465,62.641405250632204,16.522361930930426,5361,19,0.0,7183,417422568745784,27,24.8,131.36924743652344,0.5414999723434448,16,0.0,0.0,1.57542003E9,,,,0,,6,0.0,1.57542003E9
Raw,677104835,3850045091000000,,,-1261204177555612534,0.10283851623535156,1002.4033254012465,62.641405250632204,16.522361930930426,5361,21,0.0,7183,417422567407345,10,34.5,206.61474609375,0.0731000006198883,16,0.0,0.0,1.57542003E9,,,,0,,6,0.0,1.57542003E9
Raw,677105828,3850046081000000,,,-1261204177555370931,-0.6849708557128906,1001.3565188273787,59.89320173833719,10.026166216491413,5362,14,0.0,207,82605571867246,8,36.7,111.12670135498047,0.24700000882148743,16,0.0,0.0,1.59806246E9,,,,0,,3,0.0,1.59806246E9
Raw,677105828,3850046081000000,,,-1261204177555370931,-0.6849708557128906,1001.3565188273787,59.89320173833719,10.026166216491413,5362,15,0.0,207,82605565123085,13,31.6,-498.060791015625,0.26260000467300415,16,0.0,0.0,1.602E9,,,,0,,3,0.0,1.602E9
Raw,677105828,3850046081000000,,,-1261204177555370931,-0.6849708557128906,1001.3565188273787,59.89320173833719,10.026166216491413,5362,5,0.0,207,82605562034951,27,24.5,-715.25537109375,0.8844999670982361,16,0.0,0.0,1.60256256E9,,,,0,,3,0.0,1.60256256E9
Raw,677105829,3850046081000000,,,-1261204177555370931,-0.6849708557128906,1001.3565188273787,59.89320173833719,10.026166216491413,5362,3,0.0,207,82605567660524,13,31.2,585.7072143554688,0.2655999958515167,16,0.0,0.0,1.60481254E9,,,,0,,3,0.0,1.60481254E9
Raw,677105829,3850046081000000,,,-1261204177555370931,-0.6849708557128906,1001.3565188273787,59.89320173833719,10.026166216491413,5362,4,0.0,207,82605572147295,12,32.4,-144.0995330810547,0.26649999618530273,16,0.0,0.0,1.60537498E9,,,,0,,3,0.0,1.60537498E9
Raw,677105829,3850046081000000,,,-1261204177555370931,-0.6849708557128906,1001.3565188273787,59.89320173833719,10.026166216491413,5362,4,0.0,15,417423566111255,12,32.7,299.19580078125,0.057499997317790985,16,0.0,0.0,1.57542003E9,,,,0,,1,0.0,1.57542003E9
Raw,677105829,3850046081000000,,,-1261204177555370931,-0.6849708557128906,1001.3565188273787,59.89320173833719,10.026166216491413,5362,7,0.0,15,417423564263261,6,39.9,-237.3831329345703,0.027900001034140587,16,0.0,0.0,1.57542003E9,,,,0,,1,0.0,1.57542003E9
Raw,677105830,3850046081000000,,,-1261204177555370931,-0.6849708557128906,1001.3565188273787,59.89320173833719,10.026166216491413,5362,9,0.0,15,417423568743798,8,36.4,-64.47444152832031,0.042500000447034836,16,0.0,0.0,1.57542003E9,,,,0,,1,0.0,1.57542003E9
Raw,677105830,3850046081000000,,,-1261204177555370931,-0.6849708557128906,1001.3565188273787,59.89320173833719,10.026166216491413,5362,16,0.0,15,417423560652189,13,31.1,585.9452514648438,0.08510000258684158,16,0.0,0.0,1.57542003E9,,,,0,,1,0.0,1.57542003E9
Raw,677105830,3850046081000000,,,-1261204177555370931,-0.6849708557128906,1001.3565188273787,59.89320173833719,10.026166216491413,5362,23,0.0,15,417423567120767,10,34.7,192.0592498779297,0.04910000041127205,16,0.0,0.0,1.57542003E9,,,,0,,1,0.0,1.57542003E9
Raw,677105831,3850046081000000,,,-1261204177555370931,-0.6849708557128906,1001.3565188273787,59.89320173833719,10.026166216491413,5362,27,0.0,15,417423557936018,12,32.6,-283.85675048828125,0.07400000095367432,16,0.0,0.0,1.57542003E9,,,,0,,1,0.0,1.57542003E9
Raw,677105831,3850046081000000,,,-1261204177555370931,-0.6849708557128906,1001.3565188273787,59.89320173833719,10.026166216491413,5362,30,0.0,15,417423557546923,13,31.6,-464.71246337890625,0.08060000091791153,16,0.0,0.0,1.57542003E9,,,,0,,1,0.0,1.57542003E9
Raw,677105831,3850046081000000,,,-1261204177555370931,-0.6849708557128906,1001.3565188273787,59.89320173833719,10.026166216491413,5362,1,0.0,7183,417423555029370,21,26.3,-303.7562561035156,0.4699999988079071,16,0.0,0.0,1.57542003E9,,,,0,,6,0.0,1.57542003E9
Raw,677105832,3850046081000000,,,-1261204177555370931,-0.6849708557128906,1001.3565188273787,59.89320173833719,10.026166216491413,5362,4,0.0,7183,417423552420254,12,32.7,-382.3570861816406,0.30150002241134644,16,0.0,0.0,1.57542003E9,,,,0,,6,0.0,1.57542003E9
Raw,677105832,3850046081000000,,,-1261204177555370931,-0.6849708557128906,1001.3565188273787,59.89320173833719,10.026166216491413,5362,19,0.0,7183,417423558503837,19,27.7,124.39497375488281,0.4284999966621399,16,0.0,0.0,1.57542003E9,,,,0,,6,0.0,1.57542003E9
Raw,677105832,3850046081000000,,,-1261204177555370931,-0.6849708557128906,1001.3565188273787,59.89320173833719,10.026166216491413,5362,21,0.0,7183,417423557165148,11,33.3,199.6370849609375,0.28299999237060547,16,0.0,0.0,1.57542003E9,,,,0,,6,0.0,1.57542003E9
Fix,gps,37.425895,-122.171167,1.209900,1.270000,3.216000,1581019006000
Fix,gps,37.425906,-122.171176,1.729492,1.750000,3.216000,1581019007000
Raw,677106834,3850047095000000,,,-1261204177555072268,-0.9032554626464844,1001.1615231633186,38.82945761619174,8.01012736140563,5363,14,0.0,207,82606585568290,9,35.7,113.21531677246094,0.242000013589859,16,0.0,0.0,1.59806246E9,,,,0,,3,0.0,1.59806246E9
Raw,677106834,3850047095000000,,,-1261204177555072268,-0.9032554626464844,1001.1615231633186,38.82945761619174,8.01012736140563,5363,15,0.0,207,82606578826109,11,33.3,-496.5755310058594,0.2702000141143799,16,0.0,0.0,1.602E9,,,,0,,3,0.0,1.602E9
Raw,677106834,3850047095000000,,,-1261204177555072268,-0.9032554626464844,1001.1615231633186,38.82945761619174,8.01012736140563,5363,3,0.0,207,82606581359924,27,24.7,587.5591430664062,0.8829999566078186,16,0.0,0.0,1.60481254E9,,,,0,,3,0.0,1.60481254E9
